[{"id": "dv2xeItylQRjUEtxNsKBYw", "alias": "pho-hoang-austin-5", "name": "Pho Hoang", "image_url": "https://s3-media2.fl.yelpcdn.com/bphoto/AWlijk0n-cgxmR_D_qABAQ/o.jpg", "is_closed": false, "url": "https://www.yelp.com/biz/pho-hoang-austin-5?adjust_creative=SPQKlBixEX48Vo_BnitdQw&utm_campaign=yelp_api_v3&utm_medium=api_v3_business_search&utm_source=SPQKlBixEX48Vo_BnitdQw", "review_count": 295, "categories": [{"alias": "vietnamese", "title": "Vietnamese"}, {"alias": "soup", "title": "Soup"}], "rating": 4.0, "coordinates": {"latitude": 30.4791179, "longitude": -97.6782536}, "transactions": ["delivery", "pickup"], "price": "$$", "location": {"address1": "399 W Louis Henna Blvd", "address2": "Ste C", "address3": "", "city": "Austin", "zip_code": "78728", "country": "US", "state": "TX", "display_address": ["399 W Louis Henna Blvd", "Ste C", "Austin, TX 78728"]}, "phone": "+15122388008", "display_phone": "(512) 238-8008", "distance": 8004.906444733442}, {"id": "PgcB9iS3YFOZ1Evm3ResAw", "alias": "pho-thanh-nhi-cedar-park-4", "name": "Pho Thanh Nhi", "image_url": "https://s3-media4.fl.yelpcdn.com/bphoto/HSaU0CnPg60IH_xdlW8o9Q/o.jpg", "is_closed": false, "url": "https://www.yelp.com/biz/pho-thanh-nhi-cedar-park-4?adjust_creative=SPQKlBixEX48Vo_BnitdQw&utm_campaign=yelp_api_v3&utm_medium=api_v3_business_search&utm_source=SPQKlBixEX48Vo_BnitdQw", "review_count": 246, "categories": [{"alias": "vietnamese", "title": "Vietnamese"}, {"alias": "asianfusion", "title": "Asian Fusion"}, {"alias": "sandwiches", "title": "Sandwiches"}], "rating": 4.0, "coordinates": {"latitude": 30.5299005202406, "longitude": -97.81428422122922}, "transactions": ["delivery"], "price": "$$", "location": {"address1": "1335 E Whitestone Blvd", "address2": "Ste T100", "address3": "", "city": "Cedar Park", "zip_code": "78613", "country": "US", "state": "TX", "display_address": ["1335 E Whitestone Blvd", "Ste T100", "Cedar Park, TX 78613"]}, "phone": "+15122606363", "display_phone": "(512) 260-6363", "distance": 9855.999079758629}, {"id": "kV7bogiloOEgYSr_bU5VLw", "alias": "sunflower-vietnamese-cuisine-austin", "name": "Sunflower Vietnamese Cuisine", "image_url": "https://s3-media4.fl.yelpcdn.com/bphoto/niGZq4fHIzdrJEQP-QdIqA/o.jpg", "is_closed": false, "url": "https://www.yelp.com/biz/sunflower-vietnamese-cuisine-austin?adjust_creative=SPQKlBixEX48Vo_BnitdQw&utm_campaign=yelp_api_v3&utm_medium=api_v3_business_search&utm_source=SPQKlBixEX48Vo_BnitdQw", "review_count": 65, "categories": [{"alias": "vietnamese", "title": "Vietnamese"}, {"alias": "noodles", "title": "Noodles"}], "rating": 4.5, "coordinates": {"latitude": 30.44159719662341, "longitude": -97.74545757048956}, "transactions": [], "price": "$$", "location": {"address1": "6001 W Parmer Ln", "address2": "Ste 440", "address3": null, "city": "Austin", "zip_code": "78727", "country": "US", "state": "TX", "display_address": ["6001 W Parmer Ln", "Ste 440", "Austin, TX 78727"]}, "phone": "+15122916749", "display_phone": "(512) 291-6749", "distance": 1973.0283643024477}, {"id": "3yv-AArdULfZmXiEWN5FHw", "alias": "pho-phi-austin-3", "name": "Pho Phi", "image_url": "https://s3-media2.fl.yelpcdn.com/bphoto/THD99VYr6ZVvor1VLSRApA/o.jpg", "is_closed": false, "url": "https://www.yelp.com/biz/pho-phi-austin-3?adjust_creative=SPQKlBixEX48Vo_BnitdQw&utm_campaign=yelp_api_v3&utm_medium=api_v3_business_search&utm_source=SPQKlBixEX48Vo_BnitdQw", "review_count": 351, "categories": [{"alias": "vietnamese", "title": "Vietnamese"}, {"alias": "noodles", "title": "Noodles"}], "rating": 4.0, "coordinates": {"latitude": 30.41432985890226, "longitude": -97.68898597655723}, "transactions": ["delivery", "pickup"], "price": "$$", "location": {"address1": "1700 W Parmer Ln", "address2": "Ste 610", "address3": "", "city": "Austin", "zip_code": "78727", "country": "US", "state": "TX", "display_address": ["1700 W Parmer Ln", "Ste 610", "Austin, TX 78727"]}, "phone": "+15125962746", "display_phone": "(512) 596-2746", "distance": 8032.840120270795}, {"id": "Ck14Bt1fEY2UYZykyyJQ3Q", "alias": "banh-mi-galang-austin", "name": "Banh Mi Galang", "image_url": "https://s3-media2.fl.yelpcdn.com/bphoto/nFUnEpo766ptQWRd2YVKgQ/o.jpg", "is_closed": false, "url": "https://www.yelp.com/biz/banh-mi-galang-austin?adjust_creative=SPQKlBixEX48Vo_BnitdQw&utm_campaign=yelp_api_v3&utm_medium=api_v3_business_search&utm_source=SPQKlBixEX48Vo_BnitdQw", "review_count": 62, "categories": [{"alias": "vietnamese", "title": "Vietnamese"}, {"alias": "sandwiches", "title": "Sandwiches"}], "rating": 4.0, "coordinates": {"latitude": 30.479747760604138, "longitude": -97.79990893175493}, "transactions": ["delivery", "pickup"], "location": {"address1": "11301 Lakeline Blvd", "address2": "Ste 100", "address3": "Parkline Shopping Center", "city": "Austin", "zip_code": "78717", "country": "US", "state": "TX", "display_address": ["11301 Lakeline Blvd", "Ste 100", "Parkline Shopping Center", "Austin, TX 78717"]}, "phone": "+15125848391", "display_phone": "(512) 584-8391", "distance": 4853.009782268144}, {"id": "3B8x3mHsZYg5Lyh4rj6x0A", "alias": "boba-tea-austin", "name": "Boba Tea", "image_url": "https://s3-media3.fl.yelpcdn.com/bphoto/gQNIvFsGv0mAfH7Bu-zN0g/o.jpg", "is_closed": false, "url": "https://www.yelp.com/biz/boba-tea-austin?adjust_creative=SPQKlBixEX48Vo_BnitdQw&utm_campaign=yelp_api_v3&utm_medium=api_v3_business_search&utm_source=SPQKlBixEX48Vo_BnitdQw", "review_count": 48, "categories": [{"alias": "bubbletea", "title": "Bubble Tea"}, {"alias": "vietnamese", "title": "Vietnamese"}, {"alias": "sandwiches", "title": "Sandwiches"}], "rating": 4.5, "coordinates": {"latitude": 30.451121, "longitude": -97.784126}, "transactions": ["delivery"], "location": {"address1": "9308 Anderson Mill Rd", "address2": "Ste 500", "address3": null, "city": "Austin", "zip_code": "78729", "country": "US", "state": "TX", "display_address": ["9308 Anderson Mill Rd", "Ste 500", "Austin, TX 78729"]}, "phone": "+15123581181", "display_phone": "(512) 358-1181", "distance": 2622.1673509088105}, {"id": "UN4syHhtu0NA07S-Jzb4pg", "alias": "bep-saigon-asian-kitchen-austin", "name": "Bep Saigon Asian Kitchen", "image_url": "https://s3-media3.fl.yelpcdn.com/bphoto/7S-wQVbwc1a8b4Ym4dtTkA/o.jpg", "is_closed": false, "url": "https://www.yelp.com/biz/bep-saigon-asian-kitchen-austin?adjust_creative=SPQKlBixEX48Vo_BnitdQw&utm_campaign=yelp_api_v3&utm_medium=api_v3_business_search&utm_source=SPQKlBixEX48Vo_BnitdQw", "review_count": 163, "categories": [{"alias": "vietnamese", "title": "Vietnamese"}, {"alias": "chinese", "title": "Chinese"}], "rating": 4.5, "coordinates": {"latitude": 30.416188974052844, "longitude": -97.67175414169681}, "transactions": ["delivery", "pickup"], "price": "$$", "location": {"address1": "12901 N Interstate Hwy 35", "address2": "Ste 1540", "address3": null, "city": "Austin", "zip_code": "78753", "country": "US", "state": "TX", "display_address": ["12901 N Interstate Hwy 35", "Ste 1540", "Austin, TX 78753"]}, "phone": "+15129920717", "display_phone": "(512) 992-0717", "distance": 9329.702749463991}, {"id": "akj7pnN_rTczNr3lblc8Aw", "alias": "pho-dan-round-rock", "name": "Pho Dan", "image_url": "https://s3-media3.fl.yelpcdn.com/bphoto/fPJaZkUf1q5Me98kYJ6kjQ/o.jpg", "is_closed": false, "url": "https://www.yelp.com/biz/pho-dan-round-rock?adjust_creative=SPQKlBixEX48Vo_BnitdQw&utm_campaign=yelp_api_v3&utm_medium=api_v3_business_search&utm_source=SPQKlBixEX48Vo_BnitdQw", "review_count": 193, "categories": [{"alias": "vietnamese", "title": "Vietnamese"}], "rating": 4.0, "coordinates": {"latitude": 30.4804196897838, "longitude": -97.6845890783829}, "transactions": ["delivery"], "price": "$", "location": {"address1": "2711 La Frontera Blvd", "address2": "Ste 200", "address3": "", "city": "Round Rock", "zip_code": "78681", "country": "US", "state": "TX", "display_address": ["2711 La Frontera Blvd", "Ste 200", "Round Rock, TX 78681"]}, "phone": "+15125273699", "display_phone": "(512) 527-3699", "distance": 7483.355452075627}, {"id": "UQeDuhlnXSvk_bNy0yM8vw", "alias": "ph\u1edf-hub-austin", "name": "Ph\u1edf Hub", "image_url": "https://s3-media4.fl.yelpcdn.com/bphoto/NF44KeSfLYZH8Tv9OZg0cg/o.jpg", "is_closed": false, "url": "https://www.yelp.com/biz/ph%E1%BB%9F-hub-austin?adjust_creative=SPQKlBixEX48Vo_BnitdQw&utm_campaign=yelp_api_v3&utm_medium=api_v3_business_search&utm_source=SPQKlBixEX48Vo_BnitdQw", "review_count": 18, "categories": [{"alias": "vietnamese", "title": "Vietnamese"}], "rating": 5.0, "coordinates": {"latitude": 30.3931, "longitude": -97.84407}, "transactions": [], "location": {"address1": "10601 Ranch Rd 2222", "address2": "Unit A-A", "address3": "", "city": "Austin", "zip_code": "78730", "country": "US", "state": "TX", "display_address": ["10601 Ranch Rd 2222", "Unit A-A", "Austin, TX 78730"]}, "phone": "+15124284048", "display_phone": "(512) 428-4048", "distance": 10935.11081027917}, {"id": "OZgWsP7363rzGUad1c9HHw", "alias": "the-bs-kitchen-cedar-park-2", "name": "The B's Kitchen", "image_url": "https://s3-media1.fl.yelpcdn.com/bphoto/oFEnsdL0tn8GzKG1ZL1ztQ/o.jpg", "is_closed": false, "url": "https://www.yelp.com/biz/the-bs-kitchen-cedar-park-2?adjust_creative=SPQKlBixEX48Vo_BnitdQw&utm_campaign=yelp_api_v3&utm_medium=api_v3_business_search&utm_source=SPQKlBixEX48Vo_BnitdQw", "review_count": 169, "categories": [{"alias": "vietnamese", "title": "Vietnamese"}, {"alias": "asianfusion", "title": "Asian Fusion"}], "rating": 5.0, "coordinates": {"latitude": 30.51566131069689, "longitude": -97.85213770000001}, "transactions": [], "price": "$", "location": {"address1": "1075 N Lakeline Blvd", "address2": "Ste 101", "address3": "", "city": "Cedar Park", "zip_code": "78613", "country": "US", "state": "TX", "display_address": ["1075 N Lakeline Blvd", "Ste 101", "Cedar Park, TX 78613"]}, "phone": "+15128209885", "display_phone": "(512) 820-9885", "distance": 11241.318678977306}, {"id": "A3K4Uk9l5dB5XV6f4J6fAA", "alias": "le-bleu-austin", "name": "Le Bleu", "image_url": "https://s3-media1.fl.yelpcdn.com/bphoto/ED-sqSmkQ9atxTEF0ehYVg/o.jpg", "is_closed": false, "url": "https://www.yelp.com/biz/le-bleu-austin?adjust_creative=SPQKlBixEX48Vo_BnitdQw&utm_campaign=yelp_api_v3&utm_medium=api_v3_business_search&utm_source=SPQKlBixEX48Vo_BnitdQw", "review_count": 202, "categories": [{"alias": "vietnamese", "title": "Vietnamese"}, {"alias": "coffee", "title": "Coffee & Tea"}, {"alias": "sandwiches", "title": "Sandwiches"}], "rating": 4.5, "coordinates": {"latitude": 30.372145, "longitude": -97.727231}, "transactions": ["delivery"], "price": "$$", "location": {"address1": "9070 Research Blvd", "address2": "Ste 303", "address3": "", "city": "Austin", "zip_code": "78758", "country": "US", "state": "TX", "display_address": ["9070 Research Blvd", "Ste 303", "Austin, TX 78758"]}, "phone": "+15127701100", "display_phone": "(512) 770-1100", "distance": 9768.744703033683}, {"id": "QzJBA1-M62rbH8-iMxl9Gw", "alias": "pho-viet-vietnamese-cuisine-round-rock", "name": "Pho Viet Vietnamese Cuisine", "image_url": "https://s3-media2.fl.yelpcdn.com/bphoto/SoDb9UL6fSKsxpv_QZHoLw/o.jpg", "is_closed": false, "url": "https://www.yelp.com/biz/pho-viet-vietnamese-cuisine-round-rock?adjust_creative=SPQKlBixEX48Vo_BnitdQw&utm_campaign=yelp_api_v3&utm_medium=api_v3_business_search&utm_source=SPQKlBixEX48Vo_BnitdQw", "review_count": 421, "categories": [{"alias": "vietnamese", "title": "Vietnamese"}], "rating": 4.0, "coordinates": {"latitude": 30.481491053551, "longitude": -97.6572252460292}, "transactions": ["delivery", "pickup"], "price": "$$", "location": {"address1": "603 Louis Henna Blvd", "address2": "Ste B200", "address3": "", "city": "Round Rock", "zip_code": "78664", "country": "US", "state": "TX", "display_address": ["603 Louis Henna Blvd", "Ste B200", "Round Rock, TX 78664"]}, "phone": "+15122557800", "display_phone": "(512) 255-7800", "distance": 10006.343100985801}, {"id": "1-WToB8DgyCljgukdaxUsw", "alias": "pho-saigon-noodle-house-austin-2", "name": "Pho Saigon Noodle House", "image_url": "https://s3-media3.fl.yelpcdn.com/bphoto/4Zk3go5a-cVEIQxKrNe9_w/o.jpg", "is_closed": false, "url": "https://www.yelp.com/biz/pho-saigon-noodle-house-austin-2?adjust_creative=SPQKlBixEX48Vo_BnitdQw&utm_campaign=yelp_api_v3&utm_medium=api_v3_business_search&utm_source=SPQKlBixEX48Vo_BnitdQw", "review_count": 780, "categories": [{"alias": "vietnamese", "title": "Vietnamese"}, {"alias": "noodles", "title": "Noodles"}], "rating": 4.0, "coordinates": {"latitude": 30.3780509244419, "longitude": -97.6873283075485}, "transactions": ["delivery"], "price": "$$", "location": {"address1": "10901 N Lamar Blvd", "address2": "Ste A108", "address3": "", "city": "Austin", "zip_code": "78753", "country": "US", "state": "TX", "display_address": ["10901 N Lamar Blvd", "Ste A108", "Austin, TX 78753"]}, "phone": "+15128211022", "display_phone": "(512) 821-1022", "distance": 10971.124442211896}, {"id": "6clRA4fBhxUuJgvgE2BdUA", "alias": "noodle-alley-cedar-park", "name": "Noodle Alley", "image_url": "https://s3-media1.fl.yelpcdn.com/bphoto/CoYw3BMoM2fhWWaKDZ2btQ/o.jpg", "is_closed": false, "url": "https://www.yelp.com/biz/noodle-alley-cedar-park?adjust_creative=SPQKlBixEX48Vo_BnitdQw&utm_campaign=yelp_api_v3&utm_medium=api_v3_business_search&utm_source=SPQKlBixEX48Vo_BnitdQw", "review_count": 161, "categories": [{"alias": "noodles", "title": "Noodles"}, {"alias": "taiwanese", "title": "Taiwanese"}, {"alias": "asianfusion", "title": "Asian Fusion"}], "rating": 4.5, "coordinates": {"latitude": 30.523355, "longitude": -97.831746}, "transactions": ["delivery", "pickup"], "price": "$$", "location": {"address1": "1201 N Bell Blvd", "address2": "Ste 100", "address3": "", "city": "Cedar Park", "zip_code": "78613", "country": "US", "state": "TX", "display_address": ["1201 N Bell Blvd", "Ste 100", "Cedar Park, TX 78613"]}, "phone": "+15125285127", "display_phone": "(512) 528-5127", "distance": 10328.164759959735}, {"id": "wl45Bg9eIl5XpFoDt48dcg", "alias": "ng-cafe-austin", "name": "NG Cafe", "image_url": "https://s3-media3.fl.yelpcdn.com/bphoto/okgdnmY3FK3-uJJW-uC7Og/o.jpg", "is_closed": false, "url": "https://www.yelp.com/biz/ng-cafe-austin?adjust_creative=SPQKlBixEX48Vo_BnitdQw&utm_campaign=yelp_api_v3&utm_medium=api_v3_business_search&utm_source=SPQKlBixEX48Vo_BnitdQw", "review_count": 539, "categories": [{"alias": "thai", "title": "Thai"}, {"alias": "vietnamese", "title": "Vietnamese"}, {"alias": "bakeries", "title": "Bakeries"}], "rating": 4.0, "coordinates": {"latitude": 30.411375, "longitude": -97.675684}, "transactions": ["delivery", "pickup"], "price": "$$", "location": {"address1": "13000 N Interstate 35", "address2": "Ste 200", "address3": "", "city": "Austin", "zip_code": "78753", "country": "US", "state": "TX", "display_address": ["13000 N Interstate 35", "Ste 200", "Austin, TX 78753"]}, "phone": "+15124918859", "display_phone": "(512) 491-8859", "distance": 9275.55749622806}, {"id": "8hGvAFOswW9f-uiWULlcxg", "alias": "bodhi-viet-vegan-austin", "name": "Bodhi Viet Vegan", "image_url": "https://s3-media2.fl.yelpcdn.com/bphoto/FO0Tp0qeja_9sqLUeHwdCA/o.jpg", "is_closed": false, "url": "https://www.yelp.com/biz/bodhi-viet-vegan-austin?adjust_creative=SPQKlBixEX48Vo_BnitdQw&utm_campaign=yelp_api_v3&utm_medium=api_v3_business_search&utm_source=SPQKlBixEX48Vo_BnitdQw", "review_count": 184, "categories": [{"alias": "vietnamese", "title": "Vietnamese"}, {"alias": "vegetarian", "title": "Vegetarian"}, {"alias": "foodtrucks", "title": "Food Trucks"}], "rating": 5.0, "coordinates": {"latitude": 30.417351, "longitude": -97.6998962373252}, "transactions": ["delivery"], "price": "$", "location": {"address1": "2301 W Parmer Ln", "address2": "", "address3": null, "city": "Austin", "zip_code": "78727", "country": "US", "state": "TX", "display_address": ["2301 W Parmer Ln", "Austin, TX 78727"]}, "phone": "+15126961807", "display_phone": "(512) 696-1807", "distance": 6992.699644935157}, {"id": "FpzMEfjhCm8Y9JjaTx5X5g", "alias": "pho-dan-austin-3", "name": "Pho Dan", "image_url": "https://s3-media2.fl.yelpcdn.com/bphoto/AxonGweblNXfys4OkdxwnA/o.jpg", "is_closed": false, "url": "https://www.yelp.com/biz/pho-dan-austin-3?adjust_creative=SPQKlBixEX48Vo_BnitdQw&utm_campaign=yelp_api_v3&utm_medium=api_v3_business_search&utm_source=SPQKlBixEX48Vo_BnitdQw", "review_count": 481, "categories": [{"alias": "vietnamese", "title": "Vietnamese"}], "rating": 4.0, "coordinates": {"latitude": 30.382055738338, "longitude": -97.687512756414}, "transactions": ["delivery"], "price": "$", "location": {"address1": "11220 N Lamar Blvd", "address2": "Ste 200", "address3": "", "city": "Austin", "zip_code": "78753", "country": "US", "state": "TX", "display_address": ["11220 N Lamar Blvd", "Ste 200", "Austin, TX 78753"]}, "phone": "+15128377800", "display_phone": "(512) 837-7800", "distance": 10611.266960254101}, {"id": "4YmchDfczzs0Kj_oX463iA", "alias": "pho-ha-noi-cuisine-austin-4", "name": "Pho Ha Noi Cuisine", "image_url": "https://s3-media1.fl.yelpcdn.com/bphoto/aDNYaTwsg0xuK6rkuhj-gQ/o.jpg", "is_closed": false, "url": "https://www.yelp.com/biz/pho-ha-noi-cuisine-austin-4?adjust_creative=SPQKlBixEX48Vo_BnitdQw&utm_campaign=yelp_api_v3&utm_medium=api_v3_business_search&utm_source=SPQKlBixEX48Vo_BnitdQw", "review_count": 123, "categories": [{"alias": "juicebars", "title": "Juice Bars & Smoothies"}, {"alias": "vietnamese", "title": "Vietnamese"}, {"alias": "chinese", "title": "Chinese"}], "rating": 4.0, "coordinates": {"latitude": 30.3821878959419, "longitude": -97.685061729831}, "transactions": ["delivery", "pickup"], "price": "$", "location": {"address1": "11331 N Lamar Blvd", "address2": "Ste F", "address3": "", "city": "Austin", "zip_code": "78753", "country": "US", "state": "TX", "display_address": ["11331 N Lamar Blvd", "Ste F", "Austin, TX 78753"]}, "phone": "+15122438627", "display_phone": "(512) 243-8627", "distance": 10749.952619916263}, {"id": "Zat9enc3f-SVkzN-96fQ0w", "alias": "kim-phung-restaurant-cedar-park-2", "name": "Kim Phung Restaurant", "image_url": "https://s3-media3.fl.yelpcdn.com/bphoto/4RTAJwZcNAkzoUu1i2x_SA/o.jpg", "is_closed": false, "url": "https://www.yelp.com/biz/kim-phung-restaurant-cedar-park-2?adjust_creative=SPQKlBixEX48Vo_BnitdQw&utm_campaign=yelp_api_v3&utm_medium=api_v3_business_search&utm_source=SPQKlBixEX48Vo_BnitdQw", "review_count": 190, "categories": [{"alias": "vietnamese", "title": "Vietnamese"}, {"alias": "chinese", "title": "Chinese"}, {"alias": "thai", "title": "Thai"}], "rating": 3.5, "coordinates": {"latitude": 30.5122697350949, "longitude": -97.8247255459428}, "transactions": ["delivery", "pickup"], "price": "$", "location": {"address1": "315 N Bell Blvd", "address2": "", "address3": "", "city": "Cedar Park", "zip_code": "78613", "country": "US", "state": "TX", "display_address": ["315 N Bell Blvd", "Cedar Park, TX 78613"]}, "phone": "+15125848064", "display_phone": "(512) 584-8064", "distance": 8983.888952606858}, {"id": "IvoRktY78gknycbffHXznQ", "alias": "phonatic-cedar-park-3", "name": "PhoNatic", "image_url": "https://s3-media1.fl.yelpcdn.com/bphoto/A11tUVkT8AV5rTDY_0Awww/o.jpg", "is_closed": false, "url": "https://www.yelp.com/biz/phonatic-cedar-park-3?adjust_creative=SPQKlBixEX48Vo_BnitdQw&utm_campaign=yelp_api_v3&utm_medium=api_v3_business_search&utm_source=SPQKlBixEX48Vo_BnitdQw", "review_count": 216, "categories": [{"alias": "vietnamese", "title": "Vietnamese"}], "rating": 3.0, "coordinates": {"latitude": 30.5269280797633, "longitude": -97.8079137391479}, "transactions": ["delivery", "pickup"], "price": "$", "location": {"address1": "1468 E Whitestone Blvd", "address2": "Ste 200", "address3": "", "city": "Cedar Park", "zip_code": "78613", "country": "US", "state": "TX", "display_address": ["1468 E Whitestone Blvd", "Ste 200", "Cedar Park, TX 78613"]}, "phone": "+15125281090", "display_phone": "(512) 528-1090", "distance": 9248.756310849469}, {"id": "GfZuFRFp_mS9IR9HQ6N70A", "alias": "pho-hong-austin", "name": "Pho Hong", "image_url": "https://s3-media3.fl.yelpcdn.com/bphoto/nZFPGvl4qjOLgisWHfM9MA/o.jpg", "is_closed": false, "url": "https://www.yelp.com/biz/pho-hong-austin?adjust_creative=SPQKlBixEX48Vo_BnitdQw&utm_campaign=yelp_api_v3&utm_medium=api_v3_business_search&utm_source=SPQKlBixEX48Vo_BnitdQw", "review_count": 198, "categories": [{"alias": "vietnamese", "title": "Vietnamese"}], "rating": 3.5, "coordinates": {"latitude": 30.382344, "longitude": -97.723165}, "transactions": ["delivery"], "price": "$", "location": {"address1": "2521 Rutland Dr", "address2": "Ste 400", "address3": "", "city": "Austin", "zip_code": "78758", "country": "US", "state": "TX", "display_address": ["2521 Rutland Dr", "Ste 400", "Austin, TX 78758"]}, "phone": "+15123396002", "display_phone": "(512) 339-6002", "distance": 8829.219566300473}, {"id": "Zv9dVSpfKxt4d_v65H50Iw", "alias": "red-lotus-asian-grille-austin", "name": "Red Lotus Asian Grille", "image_url": "https://s3-media3.fl.yelpcdn.com/bphoto/Cw3rDAUGZ2twxgLhiarwOA/o.jpg", "is_closed": false, "url": "https://www.yelp.com/biz/red-lotus-asian-grille-austin?adjust_creative=SPQKlBixEX48Vo_BnitdQw&utm_campaign=yelp_api_v3&utm_medium=api_v3_business_search&utm_source=SPQKlBixEX48Vo_BnitdQw", "review_count": 166, "categories": [{"alias": "chinese", "title": "Chinese"}, {"alias": "vietnamese", "title": "Vietnamese"}, {"alias": "soup", "title": "Soup"}], "rating": 4.5, "coordinates": {"latitude": 30.369571, "longitude": -97.800953}, "transactions": ["delivery", "pickup"], "price": "$$", "location": {"address1": "6507 Jester Blvd", "address2": "Ste 501", "address3": null, "city": "Austin", "zip_code": "78750", "country": "US", "state": "TX", "display_address": ["6507 Jester Blvd", "Ste 501", "Austin, TX 78750"]}, "phone": "+15124944994", "display_phone": "(512) 494-4994", "distance": 10485.976958527837}, {"id": "Z_H0pY1cU5A1YIiBZ963kg", "alias": "baguette-house-austin", "name": "Baguette House", "image_url": "https://s3-media1.fl.yelpcdn.com/bphoto/wvbm14QV2GsVvpYgvNiiRg/o.jpg", "is_closed": false, "url": "https://www.yelp.com/biz/baguette-house-austin?adjust_creative=SPQKlBixEX48Vo_BnitdQw&utm_campaign=yelp_api_v3&utm_medium=api_v3_business_search&utm_source=SPQKlBixEX48Vo_BnitdQw", "review_count": 416, "categories": [{"alias": "vietnamese", "title": "Vietnamese"}, {"alias": "sandwiches", "title": "Sandwiches"}], "rating": 4.0, "coordinates": {"latitude": 30.3771243408178, "longitude": -97.6868110876968}, "transactions": ["delivery", "pickup"], "price": "$", "location": {"address1": "10901 N Lamar Blvd", "address2": "", "address3": "", "city": "Austin", "zip_code": "78753", "country": "US", "state": "TX", "display_address": ["10901 N Lamar Blvd", "Austin, TX 78753"]}, "phone": "+15128379100", "display_phone": "(512) 837-9100", "distance": 11082.998316149798}, {"id": "v6CQxNa1kek_Rx3pd7lgPw", "alias": "quan-co-9-austin", "name": "Quan Co 9", "image_url": "https://s3-media4.fl.yelpcdn.com/bphoto/PistXtu8hCY7cCGkYEeZ5A/o.jpg", "is_closed": false, "url": "https://www.yelp.com/biz/quan-co-9-austin?adjust_creative=SPQKlBixEX48Vo_BnitdQw&utm_campaign=yelp_api_v3&utm_medium=api_v3_business_search&utm_source=SPQKlBixEX48Vo_BnitdQw", "review_count": 2, "categories": [{"alias": "vietnamese", "title": "Vietnamese"}], "rating": 3.5, "coordinates": {"latitude": 30.37856, "longitude": -97.6879}, "transactions": [], "location": {"address1": "10901 N Lamar Blvd", "address2": "Ste 101", "address3": "MT supermarket", "city": "Austin", "zip_code": "78753", "country": "US", "state": "TX", "display_address": ["10901 N Lamar Blvd", "Ste 101", "MT supermarket", "Austin, TX 78753"]}, "phone": "+17372090115", "display_phone": "(737) 209-0115", "distance": 10973.800476582905}, {"id": "qDg9EYJtXE_3VA7f5VCEYw", "alias": "thai-lada-austin-2", "name": "Thai Lada", "image_url": "https://s3-media3.fl.yelpcdn.com/bphoto/UvAs2lARKQj9y_krN6u8mA/o.jpg", "is_closed": false, "url": "https://www.yelp.com/biz/thai-lada-austin-2?adjust_creative=SPQKlBixEX48Vo_BnitdQw&utm_campaign=yelp_api_v3&utm_medium=api_v3_business_search&utm_source=SPQKlBixEX48Vo_BnitdQw", "review_count": 246, "categories": [{"alias": "thai", "title": "Thai"}], "rating": 4.0, "coordinates": {"latitude": 30.467729, "longitude": -97.76164}, "transactions": ["delivery", "pickup"], "price": "$$", "location": {"address1": "8701 W Parmer Ln", "address2": "Ste 1125", "address3": "", "city": "Austin", "zip_code": "78729", "country": "US", "state": "TX", "display_address": ["8701 W Parmer Ln", "Ste 1125", "Austin, TX 78729"]}, "phone": "+15126701000", "display_phone": "(512) 670-1000", "distance": 1360.0500234280605}, {"id": "AF6wcf6xKqjNmd1qym6IwQ", "alias": "hao-hao-vietnamese-and-chinese-restaurant-round-rock", "name": "Hao Hao Vietnamese & Chinese Restaurant", "image_url": "https://s3-media3.fl.yelpcdn.com/bphoto/MsunghGECFyzZOZYI21qDw/o.jpg", "is_closed": false, "url": "https://www.yelp.com/biz/hao-hao-vietnamese-and-chinese-restaurant-round-rock?adjust_creative=SPQKlBixEX48Vo_BnitdQw&utm_campaign=yelp_api_v3&utm_medium=api_v3_business_search&utm_source=SPQKlBixEX48Vo_BnitdQw", "review_count": 204, "categories": [{"alias": "chinese", "title": "Chinese"}, {"alias": "vietnamese", "title": "Vietnamese"}], "rating": 3.5, "coordinates": {"latitude": 30.5101754973821, "longitude": -97.6944657907379}, "transactions": ["delivery", "pickup"], "price": "$$", "location": {"address1": "1205 Round Rock Ave", "address2": "Ste 135", "address3": "", "city": "Round Rock", "zip_code": "78681", "country": "US", "state": "TX", "display_address": ["1205 Round Rock Ave", "Ste 135", "Round Rock, TX 78681"]}, "phone": "+15123883322", "display_phone": "(512) 388-3322", "distance": 8517.541645865918}, {"id": "og5Ia0kNZj-7tVgNCJy70A", "alias": "muangthai-thai-cuisine-austin", "name": "Muangthai Thai Cuisine", "image_url": "https://s3-media2.fl.yelpcdn.com/bphoto/1-5J7cJutimR16znFmbH0A/o.jpg", "is_closed": false, "url": "https://www.yelp.com/biz/muangthai-thai-cuisine-austin?adjust_creative=SPQKlBixEX48Vo_BnitdQw&utm_campaign=yelp_api_v3&utm_medium=api_v3_business_search&utm_source=SPQKlBixEX48Vo_BnitdQw", "review_count": 466, "categories": [{"alias": "thai", "title": "Thai"}], "rating": 3.5, "coordinates": {"latitude": 30.4720454096563, "longitude": -97.7975785357208}, "transactions": ["delivery"], "price": "$$", "location": {"address1": "13945 Hwy 183 N", "address2": "Ste C80", "address3": "", "city": "Austin", "zip_code": "78717", "country": "US", "state": "TX", "display_address": ["13945 Hwy 183 N", "Ste C80", "Austin, TX 78717"]}, "phone": "+15122195999", "display_phone": "(512) 219-5999", "distance": 4243.136964620239}, {"id": "aUWloSmN8BcPhrp_FUY_Tw", "alias": "basil-thai-austin-4", "name": "Basil Thai", "image_url": "https://s3-media2.fl.yelpcdn.com/bphoto/WG3rn_ZKgiBL3zP9p2u3EA/o.jpg", "is_closed": false, "url": "https://www.yelp.com/biz/basil-thai-austin-4?adjust_creative=SPQKlBixEX48Vo_BnitdQw&utm_campaign=yelp_api_v3&utm_medium=api_v3_business_search&utm_source=SPQKlBixEX48Vo_BnitdQw", "review_count": 252, "categories": [{"alias": "thai", "title": "Thai"}, {"alias": "hotpot", "title": "Hot Pot"}], "rating": 4.0, "coordinates": {"latitude": 30.41815, "longitude": -97.70212}, "transactions": ["delivery", "pickup"], "price": "$$", "location": {"address1": "2501 W Parmer Ln", "address2": "Ste 550", "address3": null, "city": "Austin", "zip_code": "78727", "country": "US", "state": "TX", "display_address": ["2501 W Parmer Ln", "Ste 550", "Austin, TX 78727"]}, "phone": "+15125995372", "display_phone": "(512) 599-5372", "distance": 6773.84637850019}, {"id": "6GNwUSsmbQDug0QUfFGTjQ", "alias": "hu-tieu-my-tho-austin", "name": "Hu Tieu My Tho", "image_url": "https://s3-media4.fl.yelpcdn.com/bphoto/AONucUpK5Efh8RCb9ixBjA/o.jpg", "is_closed": false, "url": "https://www.yelp.com/biz/hu-tieu-my-tho-austin?adjust_creative=SPQKlBixEX48Vo_BnitdQw&utm_campaign=yelp_api_v3&utm_medium=api_v3_business_search&utm_source=SPQKlBixEX48Vo_BnitdQw", "review_count": 35, "categories": [{"alias": "vietnamese", "title": "Vietnamese"}], "rating": 3.5, "coordinates": {"latitude": 30.378210114935083, "longitude": -97.68769754336616}, "transactions": ["delivery"], "location": {"address1": "10901 N Lamar Blvd", "address2": "Ste A101", "address3": null, "city": "Austin", "zip_code": "78753", "country": "US", "state": "TX", "display_address": ["10901 N Lamar Blvd", "Ste A101", "Austin, TX 78753"]}, "phone": "+17372090115", "display_phone": "(737) 209-0115", "distance": 10935.461552714538}, {"id": "4ksUZLtZW05zIaNKzAxi4g", "alias": "asia-cafe-austin", "name": "Asia Cafe", "image_url": "https://s3-media3.fl.yelpcdn.com/bphoto/v96zFTYuTHf_ll8vMJm7LA/o.jpg", "is_closed": false, "url": "https://www.yelp.com/biz/asia-cafe-austin?adjust_creative=SPQKlBixEX48Vo_BnitdQw&utm_campaign=yelp_api_v3&utm_medium=api_v3_business_search&utm_source=SPQKlBixEX48Vo_BnitdQw", "review_count": 898, "categories": [{"alias": "chinese", "title": "Chinese"}, {"alias": "seafood", "title": "Seafood"}, {"alias": "soup", "title": "Soup"}], "rating": 4.0, "coordinates": {"latitude": 30.43327, "longitude": -97.77172}, "transactions": ["delivery", "pickup"], "price": "$$", "location": {"address1": "8650 Spicewood Springs Rd", "address2": "Ste 114A", "address3": "", "city": "Austin", "zip_code": "78759", "country": "US", "state": "TX", "display_address": ["8650 Spicewood Springs Rd", "Ste 114A", "Austin, TX 78759"]}, "phone": "+15123315788", "display_phone": "(512) 331-5788", "distance": 2872.9470318826407}, {"id": "1sErmQCcWiLcUeey-FSwPQ", "alias": "smokin-beauty-austin", "name": "Smokin Beauty", "image_url": "https://s3-media4.fl.yelpcdn.com/bphoto/Rrpr_1_atHxmoBYbr1LsTA/o.jpg", "is_closed": false, "url": "https://www.yelp.com/biz/smokin-beauty-austin?adjust_creative=SPQKlBixEX48Vo_BnitdQw&utm_campaign=yelp_api_v3&utm_medium=api_v3_business_search&utm_source=SPQKlBixEX48Vo_BnitdQw", "review_count": 163, "categories": [{"alias": "vietnamese", "title": "Vietnamese"}, {"alias": "bars", "title": "Bars"}, {"alias": "asianfusion", "title": "Asian Fusion"}], "rating": 4.5, "coordinates": {"latitude": 30.388975, "longitude": -97.68348}, "transactions": ["delivery"], "price": "$$", "location": {"address1": "11806 N Lamar Blvd", "address2": null, "address3": "", "city": "Austin", "zip_code": "78753", "country": "US", "state": "TX", "display_address": ["11806 N Lamar Blvd", "Austin, TX 78753"]}, "phone": "+15124369379", "display_phone": "(512) 436-9379", "distance": 10276.912838278637}, {"id": "KoZE3Sw7jlK_2CbPLqXwzQ", "alias": "rice2go-round-rock-3", "name": "Rice2Go", "image_url": "https://s3-media2.fl.yelpcdn.com/bphoto/g4gS0B8XJshFfF3FTwbiNQ/o.jpg", "is_closed": false, "url": "https://www.yelp.com/biz/rice2go-round-rock-3?adjust_creative=SPQKlBixEX48Vo_BnitdQw&utm_campaign=yelp_api_v3&utm_medium=api_v3_business_search&utm_source=SPQKlBixEX48Vo_BnitdQw", "review_count": 106, "categories": [{"alias": "chinese", "title": "Chinese"}, {"alias": "vietnamese", "title": "Vietnamese"}], "rating": 3.5, "coordinates": {"latitude": 30.49749, "longitude": -97.72332}, "transactions": ["delivery", "pickup"], "price": "$$", "location": {"address1": "16560 Ranch Rd 620", "address2": "Ste 112", "address3": null, "city": "Round Rock", "zip_code": "78681", "country": "US", "state": "TX", "display_address": ["16560 Ranch Rd 620", "Ste 112", "Round Rock, TX 78681"]}, "phone": "+15125848181", "display_phone": "(512) 584-8181", "distance": 5625.728622256476}, {"id": "Y5m-kSHt2GRKnFNCBadmcw", "alias": "xian-noodles-austin", "name": "Xian Noodles", "image_url": "https://s3-media1.fl.yelpcdn.com/bphoto/zJCD_xDyYUZXCpNVsNMLdg/o.jpg", "is_closed": false, "url": "https://www.yelp.com/biz/xian-noodles-austin?adjust_creative=SPQKlBixEX48Vo_BnitdQw&utm_campaign=yelp_api_v3&utm_medium=api_v3_business_search&utm_source=SPQKlBixEX48Vo_BnitdQw", "review_count": 302, "categories": [{"alias": "noodles", "title": "Noodles"}, {"alias": "dimsum", "title": "Dim Sum"}, {"alias": "sushi", "title": "Sushi Bars"}], "rating": 4.0, "coordinates": {"latitude": 30.4007711312681, "longitude": -97.727352976799}, "transactions": ["pickup", "delivery"], "price": "$$", "location": {"address1": "3401 Esperanza Crossing", "address2": "Ste 106", "address3": null, "city": "Austin", "zip_code": "78758", "country": "US", "state": "TX", "display_address": ["3401 Esperanza Crossing", "Ste 106", "Austin, TX 78758"]}, "phone": "+15126144028", "display_phone": "(512) 614-4028", "distance": 6788.708514385695}, {"id": "9iSl6uJHhwGLks4ovgVTFg", "alias": "nancys-sky-garden-round-rock-3", "name": "Nancy's Sky Garden", "image_url": "https://s3-media3.fl.yelpcdn.com/bphoto/EENzSrxElYaSL6G64OfPWg/o.jpg", "is_closed": false, "url": "https://www.yelp.com/biz/nancys-sky-garden-round-rock-3?adjust_creative=SPQKlBixEX48Vo_BnitdQw&utm_campaign=yelp_api_v3&utm_medium=api_v3_business_search&utm_source=SPQKlBixEX48Vo_BnitdQw", "review_count": 233, "categories": [{"alias": "asianfusion", "title": "Asian Fusion"}, {"alias": "gluten_free", "title": "Gluten-Free"}], "rating": 4.5, "coordinates": {"latitude": 30.4979667663574, "longitude": -97.6754379272461}, "transactions": ["delivery", "pickup"], "price": "$$", "location": {"address1": "1105 S Mays St", "address2": "Ste 300", "address3": null, "city": "Round Rock", "zip_code": "78664", "country": "US", "state": "TX", "display_address": ["1105 S Mays St", "Ste 300", "Round Rock, TX 78664"]}, "phone": "+15125208383", "display_phone": "(512) 520-8383", "distance": 9125.852302058745}, {"id": "fnSCOXXY4GAvy6T8l-Rg1Q", "alias": "sip-saam-thai-austin", "name": "Sip Saam Thai", "image_url": "https://s3-media3.fl.yelpcdn.com/bphoto/arvQTRll7WHrESd4-ThlZg/o.jpg", "is_closed": false, "url": "https://www.yelp.com/biz/sip-saam-thai-austin?adjust_creative=SPQKlBixEX48Vo_BnitdQw&utm_campaign=yelp_api_v3&utm_medium=api_v3_business_search&utm_source=SPQKlBixEX48Vo_BnitdQw", "review_count": 833, "categories": [{"alias": "thai", "title": "Thai"}], "rating": 4.0, "coordinates": {"latitude": 30.4451956518164, "longitude": -97.7446051506734}, "transactions": ["delivery", "pickup"], "price": "$$", "location": {"address1": "6301 W Parmer Ln", "address2": "Ste 505", "address3": null, "city": "Austin", "zip_code": "78729", "country": "US", "state": "TX", "display_address": ["6301 W Parmer Ln", "Ste 505", "Austin, TX 78729"]}, "phone": "+15123581878", "display_phone": "(512) 358-1878", "distance": 1720.2042232936662}, {"id": "kCay_3uqhE44jaWNDCBmhA", "alias": "thai-kun-austin-2", "name": "Thai Kun", "image_url": "https://s3-media2.fl.yelpcdn.com/bphoto/2qYa4iTsr1UoOKbUEjUrZw/o.jpg", "is_closed": false, "url": "https://www.yelp.com/biz/thai-kun-austin-2?adjust_creative=SPQKlBixEX48Vo_BnitdQw&utm_campaign=yelp_api_v3&utm_medium=api_v3_business_search&utm_source=SPQKlBixEX48Vo_BnitdQw", "review_count": 555, "categories": [{"alias": "thai", "title": "Thai"}], "rating": 4.0, "coordinates": {"latitude": 30.4016022028548, "longitude": -97.7223529556808}, "transactions": ["delivery", "pickup"], "price": "$$", "location": {"address1": "11601 Rock Rose Ave", "address2": "Ste 100", "address3": "", "city": "Austin", "zip_code": "78758", "country": "US", "state": "TX", "display_address": ["11601 Rock Rose Ave", "Ste 100", "Austin, TX 78758"]}, "phone": "+15123945550", "display_phone": "(512) 394-5550", "distance": 6924.495714959698}, {"id": "DzSgeHJYXSmAsWRrX50LYw", "alias": "thai-time-austin-3", "name": "Thai Time", "image_url": "https://s3-media4.fl.yelpcdn.com/bphoto/aMIhQroCwAcQ1oATILYZlw/o.jpg", "is_closed": false, "url": "https://www.yelp.com/biz/thai-time-austin-3?adjust_creative=SPQKlBixEX48Vo_BnitdQw&utm_campaign=yelp_api_v3&utm_medium=api_v3_business_search&utm_source=SPQKlBixEX48Vo_BnitdQw", "review_count": 43, "categories": [{"alias": "foodtrucks", "title": "Food Trucks"}, {"alias": "thai", "title": "Thai"}], "rating": 5.0, "coordinates": {"latitude": 30.450189, "longitude": -97.784081}, "transactions": ["delivery"], "location": {"address1": "9313 Anderson Mill Rd", "address2": null, "address3": "", "city": "Austin", "zip_code": "78729", "country": "US", "state": "TX", "display_address": ["9313 Anderson Mill Rd", "Austin, TX 78729"]}, "phone": "+15127859727", "display_phone": "(512) 785-9727", "distance": 2642.288202652528}, {"id": "Y3AdUYlolRHsqkWRXVLW5w", "alias": "king-noodle-cedar-park", "name": "King Noodle", "image_url": "https://s3-media2.fl.yelpcdn.com/bphoto/IwD2HGqShWbDDDK5p_eI_Q/o.jpg", "is_closed": false, "url": "https://www.yelp.com/biz/king-noodle-cedar-park?adjust_creative=SPQKlBixEX48Vo_BnitdQw&utm_campaign=yelp_api_v3&utm_medium=api_v3_business_search&utm_source=SPQKlBixEX48Vo_BnitdQw", "review_count": 207, "categories": [{"alias": "sushi", "title": "Sushi Bars"}, {"alias": "vietnamese", "title": "Vietnamese"}, {"alias": "noodles", "title": "Noodles"}], "rating": 3.0, "coordinates": {"latitude": 30.495667, "longitude": -97.821856}, "transactions": ["delivery", "pickup"], "price": "$$", "location": {"address1": "500 Cypress Creek Road", "address2": "Ste 100", "address3": "", "city": "Cedar Park", "zip_code": "78613", "country": "US", "state": "TX", "display_address": ["500 Cypress Creek Road", "Ste 100", "Cedar Park, TX 78613"]}, "phone": "+15122190006", "display_phone": "(512) 219-0006", "distance": 7589.024172847727}, {"id": "xuM7sO0Qea_gt3ww9ZiIew", "alias": "fat-dragon-austin", "name": "Fat Dragon", "image_url": "https://s3-media2.fl.yelpcdn.com/bphoto/Docq2LJXINR4zniGOky9tw/o.jpg", "is_closed": false, "url": "https://www.yelp.com/biz/fat-dragon-austin?adjust_creative=SPQKlBixEX48Vo_BnitdQw&utm_campaign=yelp_api_v3&utm_medium=api_v3_business_search&utm_source=SPQKlBixEX48Vo_BnitdQw", "review_count": 339, "categories": [{"alias": "asianfusion", "title": "Asian Fusion"}, {"alias": "chinese", "title": "Chinese"}, {"alias": "ramen", "title": "Ramen"}], "rating": 4.0, "coordinates": {"latitude": 30.432817, "longitude": -97.771544}, "transactions": ["delivery", "pickup"], "price": "$$", "location": {"address1": "8650 Spicewood Springs Rd", "address2": "Ste 109", "address3": "", "city": "Austin", "zip_code": "78759", "country": "US", "state": "TX", "display_address": ["8650 Spicewood Springs Rd", "Ste 109", "Austin, TX 78759"]}, "phone": "+15122587587", "display_phone": "(512) 258-7587", "distance": 2919.8298484076117}, {"id": "C7QIMZ7sfcmsUAyNNj5bIg", "alias": "pho-king-austin-3", "name": "Pho King", "image_url": "https://s3-media4.fl.yelpcdn.com/bphoto/yOBepKDCRxThZtOeLadIEw/o.jpg", "is_closed": false, "url": "https://www.yelp.com/biz/pho-king-austin-3?adjust_creative=SPQKlBixEX48Vo_BnitdQw&utm_campaign=yelp_api_v3&utm_medium=api_v3_business_search&utm_source=SPQKlBixEX48Vo_BnitdQw", "review_count": 297, "categories": [{"alias": "vietnamese", "title": "Vietnamese"}], "rating": 3.0, "coordinates": {"latitude": 30.39865, "longitude": -97.65517}, "transactions": ["delivery"], "price": "$", "location": {"address1": "1021 E Parmer Ln", "address2": "", "address3": "", "city": "Austin", "zip_code": "78753", "country": "US", "state": "TX", "display_address": ["1021 E Parmer Ln", "Austin, TX 78753"]}, "phone": "+15124917585", "display_phone": "(512) 491-7585", "distance": 11705.011084135122}, {"id": "pENVEVg27X87YPOqeEdiDg", "alias": "yummi-tacos-and-more-austin", "name": "Yummi Tacos & More", "image_url": "https://s3-media3.fl.yelpcdn.com/bphoto/whumy9Qg7niopNrQLDrA-Q/o.jpg", "is_closed": false, "url": "https://www.yelp.com/biz/yummi-tacos-and-more-austin?adjust_creative=SPQKlBixEX48Vo_BnitdQw&utm_campaign=yelp_api_v3&utm_medium=api_v3_business_search&utm_source=SPQKlBixEX48Vo_BnitdQw", "review_count": 259, "categories": [{"alias": "mexican", "title": "Mexican"}, {"alias": "asianfusion", "title": "Asian Fusion"}, {"alias": "breakfast_brunch", "title": "Breakfast & Brunch"}], "rating": 4.0, "coordinates": {"latitude": 30.4284613770554, "longitude": -97.7603761564624}, "transactions": ["delivery"], "price": "$", "location": {"address1": "12518 Research Blvd", "address2": "Ste M", "address3": "", "city": "Austin", "zip_code": "78759", "country": "US", "state": "TX", "display_address": ["12518 Research Blvd", "Ste M", "Austin, TX 78759"]}, "phone": "+15125068780", "display_phone": "(512) 506-8780", "distance": 3082.5457094365483}, {"id": "tqK4dS89LUFIb_pe-iCscA", "alias": "tea-pillar-cedar-park-2", "name": "Tea Pillar", "image_url": "https://s3-media3.fl.yelpcdn.com/bphoto/mDtOhn6IzoWrKKxp376CCg/o.jpg", "is_closed": false, "url": "https://www.yelp.com/biz/tea-pillar-cedar-park-2?adjust_creative=SPQKlBixEX48Vo_BnitdQw&utm_campaign=yelp_api_v3&utm_medium=api_v3_business_search&utm_source=SPQKlBixEX48Vo_BnitdQw", "review_count": 16, "categories": [{"alias": "bubbletea", "title": "Bubble Tea"}], "rating": 4.5, "coordinates": {"latitude": 30.51094, "longitude": -97.82454}, "transactions": ["delivery"], "location": {"address1": "251 N Bell Blvd", "address2": "Ste 109", "address3": "", "city": "Cedar Park", "zip_code": "78613", "country": "US", "state": "TX", "display_address": ["251 N Bell Blvd", "Ste 109", "Cedar Park, TX 78613"]}, "phone": "+15123947191", "display_phone": "(512) 394-7191", "distance": 8897.12033282821}, {"id": "WrCh1Wxt43mi2-mka5OlZA", "alias": "twin-lion-chinese-restaurant-austin", "name": "Twin Lion Chinese Restaurant", "image_url": "https://s3-media3.fl.yelpcdn.com/bphoto/fhxIyc8ooBWK56KkLUA1Pw/o.jpg", "is_closed": false, "url": "https://www.yelp.com/biz/twin-lion-chinese-restaurant-austin?adjust_creative=SPQKlBixEX48Vo_BnitdQw&utm_campaign=yelp_api_v3&utm_medium=api_v3_business_search&utm_source=SPQKlBixEX48Vo_BnitdQw", "review_count": 339, "categories": [{"alias": "chinese", "title": "Chinese"}], "rating": 4.0, "coordinates": {"latitude": 30.400181, "longitude": -97.748058}, "transactions": ["delivery"], "price": "$", "location": {"address1": "4815 W Braker Ln", "address2": "Ste 510", "address3": "", "city": "Austin", "zip_code": "78759", "country": "US", "state": "TX", "display_address": ["4815 W Braker Ln", "Ste 510", "Austin, TX 78759"]}, "phone": "+15127948772", "display_phone": "(512) 794-8772", "distance": 6277.664283511625}, {"id": "VO15t9gK-Tux64wo-R3V9w", "alias": "ho-ho-chinese-bbq-austin", "name": "Ho Ho Chinese BBQ", "image_url": "https://s3-media4.fl.yelpcdn.com/bphoto/ELzZVrKcVmsdY450qSr0pQ/o.jpg", "is_closed": false, "url": "https://www.yelp.com/biz/ho-ho-chinese-bbq-austin?adjust_creative=SPQKlBixEX48Vo_BnitdQw&utm_campaign=yelp_api_v3&utm_medium=api_v3_business_search&utm_source=SPQKlBixEX48Vo_BnitdQw", "review_count": 785, "categories": [{"alias": "bbq", "title": "Barbeque"}, {"alias": "seafood", "title": "Seafood"}, {"alias": "cantonese", "title": "Cantonese"}], "rating": 3.5, "coordinates": {"latitude": 30.4102155201272, "longitude": -97.675791628534}, "transactions": ["pickup", "delivery"], "price": "$$", "location": {"address1": "13000 N Ih-35", "address2": "Bldg 6", "address3": "", "city": "Austin", "zip_code": "78753", "country": "US", "state": "TX", "display_address": ["13000 N Ih-35", "Bldg 6", "Austin, TX 78753"]}, "phone": "+15123399088", "display_phone": "(512) 339-9088", "distance": 9336.65246691851}, {"id": "anko2jCus0X_LKNLFaAGeQ", "alias": "cyclo-austin", "name": "Cyclo", "image_url": "https://s3-media1.fl.yelpcdn.com/bphoto/lIN-liGtRA71rAghi7CAeA/o.jpg", "is_closed": false, "url": "https://www.yelp.com/biz/cyclo-austin?adjust_creative=SPQKlBixEX48Vo_BnitdQw&utm_campaign=yelp_api_v3&utm_medium=api_v3_business_search&utm_source=SPQKlBixEX48Vo_BnitdQw", "review_count": 138, "categories": [{"alias": "vietnamese", "title": "Vietnamese"}, {"alias": "chinese", "title": "Chinese"}], "rating": 3.5, "coordinates": {"latitude": 30.410711, "longitude": -97.676336}, "transactions": ["pickup", "delivery"], "price": "$", "location": {"address1": "13000 N Ih 35", "address2": "Ste 102", "address3": "", "city": "Austin", "zip_code": "78753", "country": "US", "state": "TX", "display_address": ["13000 N Ih 35", "Ste 102", "Austin, TX 78753"]}, "phone": "+15123391688", "display_phone": "(512) 339-1688", "distance": 9262.845553813611}, {"id": "WstMx2Utm7-fFtWvlMXrNA", "alias": "joi-austin", "name": "Joi", "image_url": "https://s3-media1.fl.yelpcdn.com/bphoto/wft61UNNeiLhoWdAZDJBXQ/o.jpg", "is_closed": false, "url": "https://www.yelp.com/biz/joi-austin?adjust_creative=SPQKlBixEX48Vo_BnitdQw&utm_campaign=yelp_api_v3&utm_medium=api_v3_business_search&utm_source=SPQKlBixEX48Vo_BnitdQw", "review_count": 126, "categories": [{"alias": "asianfusion", "title": "Asian Fusion"}, {"alias": "sushi", "title": "Sushi Bars"}], "rating": 3.5, "coordinates": {"latitude": 30.40301526685455, "longitude": -97.72161307423309}, "transactions": ["delivery"], "price": "$$", "location": {"address1": "3120 Palm Way", "address2": "Ste 150", "address3": null, "city": "Austin", "zip_code": "78758", "country": "US", "state": "TX", "display_address": ["3120 Palm Way", "Ste 150", "Austin, TX 78758"]}, "phone": "+15126151070", "display_phone": "(512) 615-1070", "distance": 6822.874847284279}, {"id": "aH8weawVBM7yf_J8FHKsJg", "alias": "xing-long-chinese-cuisine-austin-2", "name": "Xing Long Chinese Cuisine", "image_url": "https://s3-media2.fl.yelpcdn.com/bphoto/DbYWhV41Lu_7euxiXKF-cQ/o.jpg", "is_closed": false, "url": "https://www.yelp.com/biz/xing-long-chinese-cuisine-austin-2?adjust_creative=SPQKlBixEX48Vo_BnitdQw&utm_campaign=yelp_api_v3&utm_medium=api_v3_business_search&utm_source=SPQKlBixEX48Vo_BnitdQw", "review_count": 48, "categories": [{"alias": "chinese", "title": "Chinese"}, {"alias": "catering", "title": "Caterers"}], "rating": 4.0, "coordinates": {"latitude": 30.44774, "longitude": -97.79105}, "transactions": ["pickup", "delivery"], "location": {"address1": "13450 Research Blvd", "address2": "St 118", "address3": null, "city": "Austin", "zip_code": "78729", "country": "US", "state": "TX", "display_address": ["13450 Research Blvd", "St 118", "Austin, TX 78729"]}, "phone": "+15123318168", "display_phone": "(512) 331-8168", "distance": 3418.2571939534773}, {"id": "U3OK4SzVzApqsYaoP7Y0gw", "alias": "blue-basil-austin", "name": "Blue Basil", "image_url": "https://s3-media3.fl.yelpcdn.com/bphoto/-96VKC8vS4749D2zQFGkIA/o.jpg", "is_closed": false, "url": "https://www.yelp.com/biz/blue-basil-austin?adjust_creative=SPQKlBixEX48Vo_BnitdQw&utm_campaign=yelp_api_v3&utm_medium=api_v3_business_search&utm_source=SPQKlBixEX48Vo_BnitdQw", "review_count": 60, "categories": [{"alias": "foodtrucks", "title": "Food Trucks"}, {"alias": "thai", "title": "Thai"}], "rating": 4.5, "coordinates": {"latitude": 30.40070152282715, "longitude": -97.75}, "transactions": ["pickup", "delivery"], "price": "$", "location": {"address1": null, "address2": null, "address3": "", "city": "Austin", "zip_code": "78759", "country": "US", "state": "TX", "display_address": ["Austin, TX 78759"]}, "phone": "+15129491442", "display_phone": "(512) 949-1442", "distance": 6100.782855777217}, {"id": "mgjeOZOXCAELapNzx7_96w", "alias": "fresh-tofu-austin", "name": "Fresh Tofu", "image_url": "https://s3-media3.fl.yelpcdn.com/bphoto/S-r85ll8cu9g4bVtLt5b6Q/o.jpg", "is_closed": false, "url": "https://www.yelp.com/biz/fresh-tofu-austin?adjust_creative=SPQKlBixEX48Vo_BnitdQw&utm_campaign=yelp_api_v3&utm_medium=api_v3_business_search&utm_source=SPQKlBixEX48Vo_BnitdQw", "review_count": 75, "categories": [{"alias": "vietnamese", "title": "Vietnamese"}], "rating": 3.5, "coordinates": {"latitude": 30.377257, "longitude": -97.686741}, "transactions": ["delivery"], "price": "$", "location": {"address1": "10901 N Lamar Blvd", "address2": "", "address3": "", "city": "Austin", "zip_code": "78753", "country": "US", "state": "TX", "display_address": ["10901 N Lamar Blvd", "Austin, TX 78753"]}, "phone": "+15124919757", "display_phone": "(512) 491-9757", "distance": 11075.425580046742}, {"id": "3bjB8DjWcfU7kxsVqdnelQ", "alias": "thai-cuisine-austin", "name": "Thai Cuisine", "image_url": "https://s3-media3.fl.yelpcdn.com/bphoto/kno3Ep3gvIaJn7igQFrrQA/o.jpg", "is_closed": false, "url": "https://www.yelp.com/biz/thai-cuisine-austin?adjust_creative=SPQKlBixEX48Vo_BnitdQw&utm_campaign=yelp_api_v3&utm_medium=api_v3_business_search&utm_source=SPQKlBixEX48Vo_BnitdQw", "review_count": 792, "categories": [{"alias": "thai", "title": "Thai"}], "rating": 4.0, "coordinates": {"latitude": 30.4254760742188, "longitude": -97.7167358398438}, "transactions": ["pickup", "delivery"], "price": "$$", "location": {"address1": "4101 W Parmer Ln", "address2": "Ste F", "address3": "", "city": "Austin", "zip_code": "78727", "country": "US", "state": "TX", "display_address": ["4101 W Parmer Ln", "Ste F", "Austin, TX 78727"]}, "phone": "+15128357888", "display_phone": "(512) 835-7888", "distance": 5173.000409619912}, {"id": "PceDd3uYY5VNBeI_zB2RBA", "alias": "newks-eatery-austin", "name": "Newk's Eatery", "image_url": "https://s3-media1.fl.yelpcdn.com/bphoto/toYhirPpyTI8AVflVFsVLQ/o.jpg", "is_closed": false, "url": "https://www.yelp.com/biz/newks-eatery-austin?adjust_creative=SPQKlBixEX48Vo_BnitdQw&utm_campaign=yelp_api_v3&utm_medium=api_v3_business_search&utm_source=SPQKlBixEX48Vo_BnitdQw", "review_count": 352, "categories": [{"alias": "pizza", "title": "Pizza"}, {"alias": "sandwiches", "title": "Sandwiches"}, {"alias": "newamerican", "title": "American (New)"}], "rating": 4.0, "coordinates": {"latitude": 30.395227, "longitude": -97.751066}, "transactions": ["pickup", "delivery"], "price": "$$", "location": {"address1": "9722 Great Hills Trl", "address2": "Ste 130", "address3": "", "city": "Austin", "zip_code": "78759", "country": "US", "state": "TX", "display_address": ["9722 Great Hills Trl", "Ste 130", "Austin, TX 78759"]}, "phone": "+15127957507", "display_phone": "(512) 795-7507", "distance": 6791.619150093655}, {"id": "4THc7ojs6ppNHKhLl74www", "alias": "rice-bowl-cafe-austin", "name": "Rice Bowl Cafe", "image_url": "https://s3-media1.fl.yelpcdn.com/bphoto/HrcKHl2-IDSRAHkqG2Ywlw/o.jpg", "is_closed": false, "url": "https://www.yelp.com/biz/rice-bowl-cafe-austin?adjust_creative=SPQKlBixEX48Vo_BnitdQw&utm_campaign=yelp_api_v3&utm_medium=api_v3_business_search&utm_source=SPQKlBixEX48Vo_BnitdQw", "review_count": 697, "categories": [{"alias": "chinese", "title": "Chinese"}, {"alias": "taiwanese", "title": "Taiwanese"}], "rating": 4.0, "coordinates": {"latitude": 30.382482, "longitude": -97.688518}, "transactions": ["pickup", "delivery"], "price": "$$", "location": {"address1": "11220 N Lamar Blvd", "address2": "Ste C 306", "address3": "", "city": "Austin", "zip_code": "78753", "country": "US", "state": "TX", "display_address": ["11220 N Lamar Blvd", "Ste C 306", "Austin, TX 78753"]}, "phone": "+15128358888", "display_phone": "(512) 835-8888", "distance": 10513.74093398522}, {"id": "FanEYXYDnz2KqoMFZ_xA0Q", "alias": "gen-bobabee-and-coffee-house-austin", "name": "Gen bobabee & coffee house", "image_url": "https://s3-media2.fl.yelpcdn.com/bphoto/qxxEkMeNqw6VhxQN1KMYrQ/o.jpg", "is_closed": false, "url": "https://www.yelp.com/biz/gen-bobabee-and-coffee-house-austin?adjust_creative=SPQKlBixEX48Vo_BnitdQw&utm_campaign=yelp_api_v3&utm_medium=api_v3_business_search&utm_source=SPQKlBixEX48Vo_BnitdQw", "review_count": 66, "categories": [{"alias": "coffee", "title": "Coffee & Tea"}, {"alias": "bubbletea", "title": "Bubble Tea"}], "rating": 4.5, "coordinates": {"latitude": 30.3781625741345, "longitude": -97.6875973461021}, "transactions": ["delivery"], "location": {"address1": "10901 N Lamar Blvd", "address2": "Ste A 104", "address3": "", "city": "Austin", "zip_code": "78753", "country": "US", "state": "TX", "display_address": ["10901 N Lamar Blvd", "Ste A 104", "Austin, TX 78753"]}, "phone": "+15122962362", "display_phone": "(512) 296-2362", "distance": 10945.518694566033}, {"id": "HqSFA9ccuFdPcmjFWidmww", "alias": "fire-bowl-cafe-austin-5", "name": "Fire Bowl Cafe", "image_url": "https://s3-media3.fl.yelpcdn.com/bphoto/Xtiw6VGNYk-JBz3i3P6rWw/o.jpg", "is_closed": false, "url": "https://www.yelp.com/biz/fire-bowl-cafe-austin-5?adjust_creative=SPQKlBixEX48Vo_BnitdQw&utm_campaign=yelp_api_v3&utm_medium=api_v3_business_search&utm_source=SPQKlBixEX48Vo_BnitdQw", "review_count": 98, "categories": [{"alias": "chinese", "title": "Chinese"}, {"alias": "asianfusion", "title": "Asian Fusion"}], "rating": 3.5, "coordinates": {"latitude": 30.4689737529506, "longitude": -97.7991396255236}, "transactions": ["delivery"], "price": "$", "location": {"address1": "13000 N Fm 620 Rd", "address2": "Ste 103", "address3": null, "city": "Austin", "zip_code": "78750", "country": "US", "state": "TX", "display_address": ["13000 N Fm 620 Rd", "Ste 103", "Austin, TX 78750"]}, "phone": "+15123878800", "display_phone": "(512) 387-8800", "distance": 4252.379480022526}, {"id": "BCoVE-SCPwbcA88BVxjuFg", "alias": "first-chinese-barbecue-austin", "name": "First Chinese Barbecue", "image_url": "https://s3-media3.fl.yelpcdn.com/bphoto/CFrVMrLx2PX2gHybdBvC3A/o.jpg", "is_closed": false, "url": "https://www.yelp.com/biz/first-chinese-barbecue-austin?adjust_creative=SPQKlBixEX48Vo_BnitdQw&utm_campaign=yelp_api_v3&utm_medium=api_v3_business_search&utm_source=SPQKlBixEX48Vo_BnitdQw", "review_count": 507, "categories": [{"alias": "bbq", "title": "Barbeque"}, {"alias": "cantonese", "title": "Cantonese"}, {"alias": "noodles", "title": "Noodles"}], "rating": 4.0, "coordinates": {"latitude": 30.3788135342932, "longitude": -97.6864677649429}, "transactions": ["delivery"], "price": "$$", "location": {"address1": "10901 N Lamar Blvd", "address2": "Ste 401", "address3": "Chinatown Center", "city": "Austin", "zip_code": "78753", "country": "US", "state": "TX", "display_address": ["10901 N Lamar Blvd", "Ste 401", "Chinatown Center", "Austin, TX 78753"]}, "phone": "+15128358889", "display_phone": "(512) 835-8889", "distance": 10955.20865447903}, {"id": "5AHTg27WfX7DPOd-nM2pjA", "alias": "em-gourmet-austin-2", "name": "Em Gourmet", "image_url": "https://s3-media2.fl.yelpcdn.com/bphoto/g9BPEN6jOa4tlGiViuhkkQ/o.jpg", "is_closed": false, "url": "https://www.yelp.com/biz/em-gourmet-austin-2?adjust_creative=SPQKlBixEX48Vo_BnitdQw&utm_campaign=yelp_api_v3&utm_medium=api_v3_business_search&utm_source=SPQKlBixEX48Vo_BnitdQw", "review_count": 3, "categories": [{"alias": "vietnamese", "title": "Vietnamese"}], "rating": 4.0, "coordinates": {"latitude": 30.412598673202318, "longitude": -97.68695635126724}, "transactions": ["pickup", "delivery"], "location": {"address1": "1700 W Parmer Ln", "address2": "Ste 100", "address3": null, "city": "Austin", "zip_code": "78727", "country": "US", "state": "TX", "display_address": ["1700 W Parmer Ln", "Ste 100", "Austin, TX 78727"]}, "phone": "+15128008873", "display_phone": "(512) 800-8873", "distance": 8303.045074553169}, {"id": "G5J5tBOovTjhCOAFOqgcgQ", "alias": "maxs-fusion-and-bar-cedar-park", "name": "Max's Fusion & Bar", "image_url": "https://s3-media2.fl.yelpcdn.com/bphoto/cwTsZccA2zZtEmvmnho7Gg/o.jpg", "is_closed": false, "url": "https://www.yelp.com/biz/maxs-fusion-and-bar-cedar-park?adjust_creative=SPQKlBixEX48Vo_BnitdQw&utm_campaign=yelp_api_v3&utm_medium=api_v3_business_search&utm_source=SPQKlBixEX48Vo_BnitdQw", "review_count": 22, "categories": [{"alias": "asianfusion", "title": "Asian Fusion"}, {"alias": "cocktailbars", "title": "Cocktail Bars"}], "rating": 5.0, "coordinates": {"latitude": 30.51771033337736, "longitude": -97.83863696601672}, "transactions": [], "price": "$$", "location": {"address1": "800 W Whitestone Blvd", "address2": "Ste B-5", "address3": "", "city": "Cedar Park", "zip_code": "78613", "country": "US", "state": "TX", "display_address": ["800 W Whitestone Blvd", "Ste B-5", "Cedar Park, TX 78613"]}, "phone": "", "display_phone": "", "distance": 10373.897885058128}, {"id": "vzSXdDYtnm_F_x1hY2UVVw", "alias": "chens-noodle-house-austin", "name": "Chen's Noodle House", "image_url": "https://s3-media1.fl.yelpcdn.com/bphoto/p-92uyi55hRnSNH7fnqjiA/o.jpg", "is_closed": false, "url": "https://www.yelp.com/biz/chens-noodle-house-austin?adjust_creative=SPQKlBixEX48Vo_BnitdQw&utm_campaign=yelp_api_v3&utm_medium=api_v3_business_search&utm_source=SPQKlBixEX48Vo_BnitdQw", "review_count": 493, "categories": [{"alias": "chinese", "title": "Chinese"}, {"alias": "noodles", "title": "Noodles"}], "rating": 4.0, "coordinates": {"latitude": 30.43327, "longitude": -97.77172}, "transactions": ["pickup", "delivery"], "price": "$", "location": {"address1": "8650 Spicewood Springs Rd", "address2": "", "address3": null, "city": "Austin", "zip_code": "78759", "country": "US", "state": "TX", "display_address": ["8650 Spicewood Springs Rd", "Austin, TX 78759"]}, "phone": "+15123368889", "display_phone": "(512) 336-8889", "distance": 2872.577370146789}, {"id": "D3biBNIn0bPro_DPA4dpyA", "alias": "sunrise-teahouse-round-rock-2", "name": "Sunrise Teahouse", "image_url": "https://s3-media1.fl.yelpcdn.com/bphoto/hmkPU1SYhmTvnkQgEkQBPQ/o.jpg", "is_closed": false, "url": "https://www.yelp.com/biz/sunrise-teahouse-round-rock-2?adjust_creative=SPQKlBixEX48Vo_BnitdQw&utm_campaign=yelp_api_v3&utm_medium=api_v3_business_search&utm_source=SPQKlBixEX48Vo_BnitdQw", "review_count": 90, "categories": [{"alias": "bubbletea", "title": "Bubble Tea"}, {"alias": "coffee", "title": "Coffee & Tea"}], "rating": 4.0, "coordinates": {"latitude": 30.5393218438188, "longitude": -97.6705445466688}, "transactions": ["delivery"], "price": "$", "location": {"address1": "1400 E Old Settlers Blvd", "address2": "Ste 104", "address3": "", "city": "Round Rock", "zip_code": "78664", "country": "US", "state": "TX", "display_address": ["1400 E Old Settlers Blvd", "Ste 104", "Round Rock, TX 78664"]}, "phone": "+15125473319", "display_phone": "(512) 547-3319", "distance": 12446.90790689827}, {"id": "1JNEiKSh5B1w-UMOJyG96w", "alias": "lotus-chinese-austin-2", "name": "LOTUS CHINESE", "image_url": "https://s3-media2.fl.yelpcdn.com/bphoto/t8_yxSPbebth7K2LLb7Z6g/o.jpg", "is_closed": false, "url": "https://www.yelp.com/biz/lotus-chinese-austin-2?adjust_creative=SPQKlBixEX48Vo_BnitdQw&utm_campaign=yelp_api_v3&utm_medium=api_v3_business_search&utm_source=SPQKlBixEX48Vo_BnitdQw", "review_count": 201, "categories": [{"alias": "asianfusion", "title": "Asian Fusion"}, {"alias": "chinese", "title": "Chinese"}, {"alias": "noodles", "title": "Noodles"}], "rating": 4.0, "coordinates": {"latitude": 30.401074, "longitude": -97.722614}, "transactions": ["pickup", "delivery"], "price": "$$", "location": {"address1": "11501 Rock Rose Ave", "address2": "Ste 152", "address3": null, "city": "Austin", "zip_code": "78758", "country": "US", "state": "TX", "display_address": ["11501 Rock Rose Ave", "Ste 152", "Austin, TX 78758"]}, "phone": "+15123349387", "display_phone": "(512) 334-9387", "distance": 6963.90871302647}, {"id": "YEz2kmzSS_B7ymHMrXcIdw", "alias": "bambu-austin-4", "name": "BAMBU", "image_url": "https://s3-media2.fl.yelpcdn.com/bphoto/ix9lhL72__0IqkVk9q6tKA/o.jpg", "is_closed": false, "url": "https://www.yelp.com/biz/bambu-austin-4?adjust_creative=SPQKlBixEX48Vo_BnitdQw&utm_campaign=yelp_api_v3&utm_medium=api_v3_business_search&utm_source=SPQKlBixEX48Vo_BnitdQw", "review_count": 241, "categories": [{"alias": "juicebars", "title": "Juice Bars & Smoothies"}, {"alias": "bubbletea", "title": "Bubble Tea"}, {"alias": "vietnamese", "title": "Vietnamese"}], "rating": 4.0, "coordinates": {"latitude": 30.3773697955382, "longitude": -97.6872049829422}, "transactions": [], "price": "$", "location": {"address1": "10901 N Lamar Blvd", "address2": "", "address3": "", "city": "Austin", "zip_code": "78753", "country": "US", "state": "TX", "display_address": ["10901 N Lamar Blvd", "Austin, TX 78753"]}, "phone": "+15128328886", "display_phone": "(512) 832-8886", "distance": 11038.324489116767}, {"id": "MH4DHaDvz-AN0bwJmcNXJg", "alias": "ka-prow-thai-and-sushi-bistro-austin-5", "name": "Ka-Prow Thai & Sushi Bistro", "image_url": "https://s3-media2.fl.yelpcdn.com/bphoto/mttUHsP8vUsHI7k1LCbC6g/o.jpg", "is_closed": false, "url": "https://www.yelp.com/biz/ka-prow-thai-and-sushi-bistro-austin-5?adjust_creative=SPQKlBixEX48Vo_BnitdQw&utm_campaign=yelp_api_v3&utm_medium=api_v3_business_search&utm_source=SPQKlBixEX48Vo_BnitdQw", "review_count": 441, "categories": [{"alias": "sushi", "title": "Sushi Bars"}, {"alias": "thai", "title": "Thai"}], "rating": 4.0, "coordinates": {"latitude": 30.424595, "longitude": -97.669789}, "transactions": ["delivery", "pickup"], "price": "$$", "location": {"address1": "1200 W Howard Ln", "address2": "Ste O", "address3": "", "city": "Austin", "zip_code": "78753", "country": "US", "state": "TX", "display_address": ["1200 W Howard Ln", "Ste O", "Austin, TX 78753"]}, "phone": "+15129902111", "display_phone": "(512) 990-2111", "distance": 9096.761582675783}, {"id": "N-yLU5bMf6HoFlR-fJeu5g", "alias": "true-food-kitchen-austin-6", "name": "True Food Kitchen", "image_url": "https://s3-media2.fl.yelpcdn.com/bphoto/xP3BYb61ULXFc5BPl5i53w/o.jpg", "is_closed": false, "url": "https://www.yelp.com/biz/true-food-kitchen-austin-6?adjust_creative=SPQKlBixEX48Vo_BnitdQw&utm_campaign=yelp_api_v3&utm_medium=api_v3_business_search&utm_source=SPQKlBixEX48Vo_BnitdQw", "review_count": 206, "categories": [{"alias": "newamerican", "title": "American (New)"}, {"alias": "vegan", "title": "Vegan"}, {"alias": "vegetarian", "title": "Vegetarian"}], "rating": 4.0, "coordinates": {"latitude": 30.40211, "longitude": -97.726578}, "transactions": ["delivery", "pickup"], "price": "$$", "location": {"address1": "11410 Century Oaks Ter", "address2": "", "address3": "The Domain", "city": "Austin", "zip_code": "78758", "country": "US", "state": "TX", "display_address": ["11410 Century Oaks Ter", "The Domain", "Austin, TX 78758"]}, "phone": "+15129920685", "display_phone": "(512) 992-0685", "distance": 6686.652763717347}, {"id": "Mff1wOdZicJYPLDjMeltTA", "alias": "a-a-sichuan-china-austin", "name": "A+A Sichuan China", "image_url": "https://s3-media2.fl.yelpcdn.com/bphoto/beSFOYQsQpW3yogvFqKLoQ/o.jpg", "is_closed": false, "url": "https://www.yelp.com/biz/a-a-sichuan-china-austin?adjust_creative=SPQKlBixEX48Vo_BnitdQw&utm_campaign=yelp_api_v3&utm_medium=api_v3_business_search&utm_source=SPQKlBixEX48Vo_BnitdQw", "review_count": 316, "categories": [{"alias": "szechuan", "title": "Szechuan"}], "rating": 3.5, "coordinates": {"latitude": 30.432447472278117, "longitude": -97.77027180962618}, "transactions": ["delivery", "pickup"], "price": "$$", "location": {"address1": "8650 Spicewood Springs Rd", "address2": "Ste 133D", "address3": "", "city": "Austin", "zip_code": "78759", "country": "US", "state": "TX", "display_address": ["8650 Spicewood Springs Rd", "Ste 133D", "Austin, TX 78759"]}, "phone": "+15122585445", "display_phone": "(512) 258-5445", "distance": 2902.2658572253135}, {"id": "tzDF3otfex5z7SWwFsY-XQ", "alias": "lilys-sandwich-austin", "name": "Lily's Sandwich", "image_url": "https://s3-media4.fl.yelpcdn.com/bphoto/RDdvO5hizkmKKLyJNEg_JQ/o.jpg", "is_closed": false, "url": "https://www.yelp.com/biz/lilys-sandwich-austin?adjust_creative=SPQKlBixEX48Vo_BnitdQw&utm_campaign=yelp_api_v3&utm_medium=api_v3_business_search&utm_source=SPQKlBixEX48Vo_BnitdQw", "review_count": 148, "categories": [{"alias": "vietnamese", "title": "Vietnamese"}, {"alias": "sandwiches", "title": "Sandwiches"}], "rating": 3.5, "coordinates": {"latitude": 30.378044, "longitude": -97.687488}, "transactions": [], "price": "$", "location": {"address1": "10901 N Lamar Blvd", "address2": "", "address3": "", "city": "Austin", "zip_code": "78753", "country": "US", "state": "TX", "display_address": ["10901 N Lamar Blvd", "Austin, TX 78753"]}, "phone": "+15129739479", "display_phone": "(512) 973-9479", "distance": 10962.365265091858}, {"id": "F3_tbg-i0BDh1mIdzcLDsA", "alias": "teapioca-lounge-austin-7", "name": "Teapioca Lounge", "image_url": "https://s3-media2.fl.yelpcdn.com/bphoto/FHPCGbfUs0d0T01W0M5CgQ/o.jpg", "is_closed": false, "url": "https://www.yelp.com/biz/teapioca-lounge-austin-7?adjust_creative=SPQKlBixEX48Vo_BnitdQw&utm_campaign=yelp_api_v3&utm_medium=api_v3_business_search&utm_source=SPQKlBixEX48Vo_BnitdQw", "review_count": 62, "categories": [{"alias": "bubbletea", "title": "Bubble Tea"}, {"alias": "juicebars", "title": "Juice Bars & Smoothies"}, {"alias": "coffee", "title": "Coffee & Tea"}], "rating": 4.0, "coordinates": {"latitude": 30.478409, "longitude": -97.800438}, "transactions": ["delivery"], "price": "$$", "location": {"address1": "11301 Lakeline Blvd", "address2": "Ste 220", "address3": "", "city": "Austin", "zip_code": "78717", "country": "US", "state": "TX", "display_address": ["11301 Lakeline Blvd", "Ste 220", "Austin, TX 78717"]}, "phone": "+15126468970", "display_phone": "(512) 646-8970", "distance": 4817.253858976072}, {"id": "LjA7NqcdtXBw9vKz-XeaEg", "alias": "amy-s-china-cuisine-cedar-park", "name": "Amy\u2019s China Cuisine", "image_url": "https://s3-media4.fl.yelpcdn.com/bphoto/WyHbYZ770rAeP3ifpfY_Sw/o.jpg", "is_closed": false, "url": "https://www.yelp.com/biz/amy-s-china-cuisine-cedar-park?adjust_creative=SPQKlBixEX48Vo_BnitdQw&utm_campaign=yelp_api_v3&utm_medium=api_v3_business_search&utm_source=SPQKlBixEX48Vo_BnitdQw", "review_count": 378, "categories": [{"alias": "chinese", "title": "Chinese"}], "rating": 3.5, "coordinates": {"latitude": 30.530255, "longitude": -97.815715}, "transactions": ["delivery"], "price": "$$", "location": {"address1": "1335 E Whitestone Blvd", "address2": "Ste 190", "address3": "", "city": "Cedar Park", "zip_code": "78613", "country": "US", "state": "TX", "display_address": ["1335 E Whitestone Blvd", "Ste 190", "Cedar Park, TX 78613"]}, "phone": "+15125289963", "display_phone": "(512) 528-9963", "distance": 9965.098346324463}, {"id": "J1oGA-rXtjhpDi1MnxaDFg", "alias": "sxse-food-austin-3", "name": "SXSE Food", "image_url": "https://s3-media2.fl.yelpcdn.com/bphoto/7T4imKPhXDoyCIrK3FdrXQ/o.jpg", "is_closed": false, "url": "https://www.yelp.com/biz/sxse-food-austin-3?adjust_creative=SPQKlBixEX48Vo_BnitdQw&utm_campaign=yelp_api_v3&utm_medium=api_v3_business_search&utm_source=SPQKlBixEX48Vo_BnitdQw", "review_count": 54, "categories": [{"alias": "foodtrucks", "title": "Food Trucks"}, {"alias": "laotian", "title": "Laotian"}, {"alias": "asianfusion", "title": "Asian Fusion"}], "rating": 4.5, "coordinates": {"latitude": 30.385185, "longitude": -97.711977}, "transactions": ["delivery"], "location": {"address1": "10615 Metric Blvd", "address2": null, "address3": null, "city": "Austin", "zip_code": "78758", "country": "US", "state": "TX", "display_address": ["10615 Metric Blvd", "Austin, TX 78758"]}, "phone": "+15129025048", "display_phone": "(512) 902-5048", "distance": 9003.612670984476}, {"id": "TNMRbLhGY3alXJm7eHWPRw", "alias": "sogongdong-tofu-and-bbq-austin-4", "name": "Sogongdong Tofu & BBQ", "image_url": "https://s3-media4.fl.yelpcdn.com/bphoto/BFgZceahx32nUSywbjwTsA/o.jpg", "is_closed": false, "url": "https://www.yelp.com/biz/sogongdong-tofu-and-bbq-austin-4?adjust_creative=SPQKlBixEX48Vo_BnitdQw&utm_campaign=yelp_api_v3&utm_medium=api_v3_business_search&utm_source=SPQKlBixEX48Vo_BnitdQw", "review_count": 60, "categories": [{"alias": "bbq", "title": "Barbeque"}, {"alias": "asianfusion", "title": "Asian Fusion"}], "rating": 3.5, "coordinates": {"latitude": 30.4792233455218, "longitude": -97.7990290289632}, "transactions": ["delivery", "pickup"], "location": {"address1": "11301 Lakeline Blvd", "address2": "", "address3": null, "city": "Austin", "zip_code": "78717", "country": "US", "state": "TX", "display_address": ["11301 Lakeline Blvd", "Austin, TX 78717"]}, "phone": "", "display_phone": "", "distance": 4750.5427830499175}, {"id": "syvM_FOzjHoC5UWnWXHXCA", "alias": "wanfu-3-austin-3", "name": "Wanfu 3", "image_url": "https://s3-media3.fl.yelpcdn.com/bphoto/Xpu90etfl0JalEmI3MN4zA/o.jpg", "is_closed": false, "url": "https://www.yelp.com/biz/wanfu-3-austin-3?adjust_creative=SPQKlBixEX48Vo_BnitdQw&utm_campaign=yelp_api_v3&utm_medium=api_v3_business_search&utm_source=SPQKlBixEX48Vo_BnitdQw", "review_count": 85, "categories": [{"alias": "vietnamese", "title": "Vietnamese"}, {"alias": "thai", "title": "Thai"}, {"alias": "chinese", "title": "Chinese"}], "rating": 3.0, "coordinates": {"latitude": 30.4377647533018, "longitude": -97.6975127414274}, "transactions": ["delivery", "pickup"], "price": "$", "location": {"address1": "13717 Mopac Expy", "address2": "", "address3": "", "city": "Austin", "zip_code": "78727", "country": "US", "state": "TX", "display_address": ["13717 Mopac Expy", "Austin, TX 78727"]}, "phone": "+15122441500", "display_phone": "(512) 244-1500", "distance": 6088.712635173917}, {"id": "Pkp824mx2LL93TqKOdfMyQ", "alias": "yoree-korean-cuisine-austin", "name": "Yoree Korean Cuisine", "image_url": "https://s3-media3.fl.yelpcdn.com/bphoto/nm5HK4Hz3VyXFBXNdmSbDg/o.jpg", "is_closed": false, "url": "https://www.yelp.com/biz/yoree-korean-cuisine-austin?adjust_creative=SPQKlBixEX48Vo_BnitdQw&utm_campaign=yelp_api_v3&utm_medium=api_v3_business_search&utm_source=SPQKlBixEX48Vo_BnitdQw", "review_count": 89, "categories": [{"alias": "korean", "title": "Korean"}, {"alias": "soup", "title": "Soup"}, {"alias": "seafood", "title": "Seafood"}], "rating": 3.5, "coordinates": {"latitude": 30.4125197662409, "longitude": -97.686794333313}, "transactions": ["delivery"], "price": "$", "location": {"address1": "1700 W Parmer Ln", "address2": "", "address3": "", "city": "Austin", "zip_code": "78727", "country": "US", "state": "TX", "display_address": ["1700 W Parmer Ln", "Austin, TX 78727"]}, "phone": "+15128326020", "display_phone": "(512) 832-6020", "distance": 8320.785265407529}, {"id": "G9qT-Op6fI_CiME6ZvIcXA", "alias": "thamnak-thai-cedar-park-2", "name": "Thamnak Thai", "image_url": "https://s3-media4.fl.yelpcdn.com/bphoto/T6pV_6pzmaaMM4IW3N7Bhg/o.jpg", "is_closed": false, "url": "https://www.yelp.com/biz/thamnak-thai-cedar-park-2?adjust_creative=SPQKlBixEX48Vo_BnitdQw&utm_campaign=yelp_api_v3&utm_medium=api_v3_business_search&utm_source=SPQKlBixEX48Vo_BnitdQw", "review_count": 253, "categories": [{"alias": "thai", "title": "Thai"}], "rating": 3.5, "coordinates": {"latitude": 30.5029873843561, "longitude": -97.8203019894104}, "transactions": ["delivery"], "price": "$", "location": {"address1": "200 Buttercup Creek Blvd", "address2": "Ste 128", "address3": "", "city": "Cedar Park", "zip_code": "78613", "country": "US", "state": "TX", "display_address": ["200 Buttercup Creek Blvd", "Ste 128", "Cedar Park, TX 78613"]}, "phone": "+15123313810", "display_phone": "(512) 331-3810", "distance": 7974.074917137419}, {"id": "W1AyeoUpb_I-3itYKm9xTQ", "alias": "little-china-austin", "name": "Little China", "image_url": "https://s3-media3.fl.yelpcdn.com/bphoto/_j6DGOWjDgDCNGFdQnjSnA/o.jpg", "is_closed": false, "url": "https://www.yelp.com/biz/little-china-austin?adjust_creative=SPQKlBixEX48Vo_BnitdQw&utm_campaign=yelp_api_v3&utm_medium=api_v3_business_search&utm_source=SPQKlBixEX48Vo_BnitdQw", "review_count": 228, "categories": [{"alias": "chinese", "title": "Chinese"}, {"alias": "vietnamese", "title": "Vietnamese"}], "rating": 4.0, "coordinates": {"latitude": 30.407461, "longitude": -97.697616}, "transactions": ["delivery"], "price": "$", "location": {"address1": "1921 Cedar Bend Dr", "address2": "Ste A101", "address3": "", "city": "Austin", "zip_code": "78758", "country": "US", "state": "TX", "display_address": ["1921 Cedar Bend Dr", "Ste A101", "Austin, TX 78758"]}, "phone": "+15128379061", "display_phone": "(512) 837-9061", "distance": 7876.24795617322}, {"id": "xyVO973jt1bRk_3IpnYzzA", "alias": "snomo-austin", "name": "SnoMo", "image_url": "https://s3-media3.fl.yelpcdn.com/bphoto/0zffat4t1qw_-WMhR4fUVg/o.jpg", "is_closed": false, "url": "https://www.yelp.com/biz/snomo-austin?adjust_creative=SPQKlBixEX48Vo_BnitdQw&utm_campaign=yelp_api_v3&utm_medium=api_v3_business_search&utm_source=SPQKlBixEX48Vo_BnitdQw", "review_count": 506, "categories": [{"alias": "bubbletea", "title": "Bubble Tea"}, {"alias": "icecream", "title": "Ice Cream & Frozen Yogurt"}, {"alias": "shavedsnow", "title": "Shaved Snow"}], "rating": 4.5, "coordinates": {"latitude": 30.3823114202971, "longitude": -97.6880223761269}, "transactions": ["delivery", "pickup"], "price": "$", "location": {"address1": "11220 N Lamar Blvd", "address2": "Ste B275", "address3": "", "city": "Austin", "zip_code": "78753", "country": "US", "state": "TX", "display_address": ["11220 N Lamar Blvd", "Ste B275", "Austin, TX 78753"]}, "phone": "+15125513238", "display_phone": "(512) 551-3238", "distance": 10558.381097484673}, {"id": "zjPs_GgxuiKq3BEB-wTOtA", "alias": "angel-donuts-and-treats-austin", "name": "Angel Donuts & Treats", "image_url": "https://s3-media4.fl.yelpcdn.com/bphoto/NEV9UhNLCid1mVHS11DmKw/o.jpg", "is_closed": false, "url": "https://www.yelp.com/biz/angel-donuts-and-treats-austin?adjust_creative=SPQKlBixEX48Vo_BnitdQw&utm_campaign=yelp_api_v3&utm_medium=api_v3_business_search&utm_source=SPQKlBixEX48Vo_BnitdQw", "review_count": 240, "categories": [{"alias": "bakeries", "title": "Bakeries"}, {"alias": "bubbletea", "title": "Bubble Tea"}, {"alias": "donuts", "title": "Donuts"}], "rating": 4.0, "coordinates": {"latitude": 30.4236023638099, "longitude": -97.8452807415252}, "transactions": ["delivery", "pickup"], "price": "$", "location": {"address1": "8300 N Fm 620", "address2": "Bldg A, Ste 200", "address3": "", "city": "Austin", "zip_code": "78726", "country": "US", "state": "TX", "display_address": ["8300 N Fm 620", "Bldg A, Ste 200", "Austin, TX 78726"]}, "phone": "+15123304825", "display_phone": "(512) 330-4825", "distance": 9167.531307864456}, {"id": "vM2KtqtcYhYol_dR1w0fVw", "alias": "happy-dragon-chinese-bistro-round-rock", "name": "Happy Dragon Chinese Bistro", "image_url": "https://s3-media1.fl.yelpcdn.com/bphoto/g5WEzgnAlXtCjVauJmNI8w/o.jpg", "is_closed": false, "url": "https://www.yelp.com/biz/happy-dragon-chinese-bistro-round-rock?adjust_creative=SPQKlBixEX48Vo_BnitdQw&utm_campaign=yelp_api_v3&utm_medium=api_v3_business_search&utm_source=SPQKlBixEX48Vo_BnitdQw", "review_count": 205, "categories": [{"alias": "chinese", "title": "Chinese"}], "rating": 3.0, "coordinates": {"latitude": 30.482018, "longitude": -97.6568879}, "transactions": ["delivery", "pickup"], "price": "$", "location": {"address1": "661 Louis Henna Blvd", "address2": "Ste 410", "address3": "", "city": "Round Rock", "zip_code": "78664", "country": "US", "state": "TX", "display_address": ["661 Louis Henna Blvd", "Ste 410", "Round Rock, TX 78664"]}, "phone": "+15128283321", "display_phone": "(512) 828-3321", "distance": 10053.998684153748}, {"id": "ovePpKlhcKNcKUHJfm373w", "alias": "donuts-crown-cedar-park", "name": "Donuts Crown", "image_url": "https://s3-media2.fl.yelpcdn.com/bphoto/0FnF_fviWQ8YsnNwYet2Yg/o.jpg", "is_closed": false, "url": "https://www.yelp.com/biz/donuts-crown-cedar-park?adjust_creative=SPQKlBixEX48Vo_BnitdQw&utm_campaign=yelp_api_v3&utm_medium=api_v3_business_search&utm_source=SPQKlBixEX48Vo_BnitdQw", "review_count": 34, "categories": [{"alias": "donuts", "title": "Donuts"}, {"alias": "coffee", "title": "Coffee & Tea"}, {"alias": "sandwiches", "title": "Sandwiches"}], "rating": 4.5, "coordinates": {"latitude": 30.51681, "longitude": -97.85253}, "transactions": ["delivery", "pickup"], "price": "$", "location": {"address1": "1201 N Lakeline Blvd", "address2": "", "address3": null, "city": "Cedar Park", "zip_code": "78613", "country": "US", "state": "TX", "display_address": ["1201 N Lakeline Blvd", "Cedar Park, TX 78613"]}, "phone": "+15123375880", "display_phone": "(512) 337-5880", "distance": 11347.726067156558}, {"id": "Wp2FP2e9l-6ZnPdXSzcHxg", "alias": "kung-fu-tea-austin-2", "name": "Kung Fu Tea", "image_url": "https://s3-media4.fl.yelpcdn.com/bphoto/2n6V-eO4sWQMyySumtZmow/o.jpg", "is_closed": false, "url": "https://www.yelp.com/biz/kung-fu-tea-austin-2?adjust_creative=SPQKlBixEX48Vo_BnitdQw&utm_campaign=yelp_api_v3&utm_medium=api_v3_business_search&utm_source=SPQKlBixEX48Vo_BnitdQw", "review_count": 254, "categories": [{"alias": "bubbletea", "title": "Bubble Tea"}, {"alias": "coffee", "title": "Coffee & Tea"}, {"alias": "juicebars", "title": "Juice Bars & Smoothies"}], "rating": 4.5, "coordinates": {"latitude": 30.3731951160699, "longitude": -97.7284159018027}, "transactions": ["delivery"], "price": "$", "location": {"address1": "9070 Research Blvd", "address2": "Ste 102", "address3": null, "city": "Austin", "zip_code": "78758", "country": "US", "state": "TX", "display_address": ["9070 Research Blvd", "Ste 102", "Austin, TX 78758"]}, "phone": "+15129920730", "display_phone": "(512) 992-0730", "distance": 9623.862681516486}, {"id": "xMmA2vYB0kj9KtVRqqSzzA", "alias": "teapioca-lounge-round-rock", "name": "Teapioca Lounge", "image_url": "https://s3-media2.fl.yelpcdn.com/bphoto/jdClmlo3NsUdCYekqr5oUQ/o.jpg", "is_closed": false, "url": "https://www.yelp.com/biz/teapioca-lounge-round-rock?adjust_creative=SPQKlBixEX48Vo_BnitdQw&utm_campaign=yelp_api_v3&utm_medium=api_v3_business_search&utm_source=SPQKlBixEX48Vo_BnitdQw", "review_count": 117, "categories": [{"alias": "bubbletea", "title": "Bubble Tea"}, {"alias": "tea", "title": "Tea Rooms"}, {"alias": "juicebars", "title": "Juice Bars & Smoothies"}], "rating": 4.0, "coordinates": {"latitude": 30.490325390915, "longitude": -97.6793954716888}, "transactions": ["delivery"], "price": "$", "location": {"address1": "2000 S Interstate 35", "address2": "Ste N-1", "address3": "", "city": "Round Rock", "zip_code": "78681", "country": "US", "state": "TX", "display_address": ["2000 S Interstate 35", "Ste N-1", "Round Rock, TX 78681"]}, "phone": "+15128874883", "display_phone": "(512) 887-4883", "distance": 8388.503629148312}, {"id": "JsLNrREvGdPPyP8TWw9-qA", "alias": "hunan-chef-cedar-park", "name": "Hunan Chef", "image_url": "https://s3-media4.fl.yelpcdn.com/bphoto/oEk28MrrjROTmRlU2qlvGg/o.jpg", "is_closed": false, "url": "https://www.yelp.com/biz/hunan-chef-cedar-park?adjust_creative=SPQKlBixEX48Vo_BnitdQw&utm_campaign=yelp_api_v3&utm_medium=api_v3_business_search&utm_source=SPQKlBixEX48Vo_BnitdQw", "review_count": 99, "categories": [{"alias": "chinese", "title": "Chinese"}, {"alias": "seafood", "title": "Seafood"}], "rating": 3.0, "coordinates": {"latitude": 30.51094, "longitude": -97.824546}, "transactions": ["delivery", "pickup"], "price": "$", "location": {"address1": "251 N Bell Blvd", "address2": "Ste 113", "address3": "", "city": "Cedar Park", "zip_code": "78613", "country": "US", "state": "TX", "display_address": ["251 N Bell Blvd", "Ste 113", "Cedar Park, TX 78613"]}, "phone": "+15123311069", "display_phone": "(512) 331-1069", "distance": 8897.12033282821}, {"id": "PO2DIDOcTCIwHMszQlLsSQ", "alias": "mama-fus-asian-house-cedar-park", "name": "Mama Fu's Asian House", "image_url": "https://s3-media3.fl.yelpcdn.com/bphoto/UE1WrPAsaGdVj_1CQlHBdA/o.jpg", "is_closed": false, "url": "https://www.yelp.com/biz/mama-fus-asian-house-cedar-park?adjust_creative=SPQKlBixEX48Vo_BnitdQw&utm_campaign=yelp_api_v3&utm_medium=api_v3_business_search&utm_source=SPQKlBixEX48Vo_BnitdQw", "review_count": 135, "categories": [{"alias": "chinese", "title": "Chinese"}, {"alias": "asianfusion", "title": "Asian Fusion"}], "rating": 2.5, "coordinates": {"latitude": 30.52878, "longitude": -97.81803}, "transactions": ["delivery", "pickup"], "price": "$$", "location": {"address1": "4701 183A Toll Rd", "address2": "Ste C", "address3": "", "city": "Cedar Park", "zip_code": "78613", "country": "US", "state": "TX", "display_address": ["4701 183A Toll Rd", "Ste C", "Cedar Park, TX 78613"]}, "phone": "+15128406700", "display_phone": "(512) 840-6700", "distance": 9938.691238000156}, {"id": "5fxozVadLuyfJ04ogZtqng", "alias": "fire-bowl-cafe-round-rock-3", "name": "Fire Bowl Cafe", "image_url": "https://s3-media3.fl.yelpcdn.com/bphoto/WTDBZhs0hly5GPzydKaPYA/o.jpg", "is_closed": false, "url": "https://www.yelp.com/biz/fire-bowl-cafe-round-rock-3?adjust_creative=SPQKlBixEX48Vo_BnitdQw&utm_campaign=yelp_api_v3&utm_medium=api_v3_business_search&utm_source=SPQKlBixEX48Vo_BnitdQw", "review_count": 165, "categories": [{"alias": "chinese", "title": "Chinese"}], "rating": 3.5, "coordinates": {"latitude": 30.4831871, "longitude": -97.681692}, "transactions": ["delivery", "pickup"], "price": "$", "location": {"address1": "150 Sundance Pkwy", "address2": "", "address3": "", "city": "Round Rock", "zip_code": "78681", "country": "US", "state": "TX", "display_address": ["150 Sundance Pkwy", "Round Rock, TX 78681"]}, "phone": "+15122482695", "display_phone": "(512) 248-2695", "distance": 7862.071120379154}, {"id": "3p8ZW88rvQEDY8o08Elo4A", "alias": "china-dragon-chinese-restaurant-pflugerville", "name": "China Dragon Chinese Restaurant", "image_url": "https://s3-media3.fl.yelpcdn.com/bphoto/2fwBSW8TW-eCTI6_d8PmZQ/o.jpg", "is_closed": false, "url": "https://www.yelp.com/biz/china-dragon-chinese-restaurant-pflugerville?adjust_creative=SPQKlBixEX48Vo_BnitdQw&utm_campaign=yelp_api_v3&utm_medium=api_v3_business_search&utm_source=SPQKlBixEX48Vo_BnitdQw", "review_count": 166, "categories": [{"alias": "chinese", "title": "Chinese"}, {"alias": "seafood", "title": "Seafood"}, {"alias": "noodles", "title": "Noodles"}], "rating": 3.5, "coordinates": {"latitude": 30.4502683573238, "longitude": -97.6573003399506}, "transactions": ["delivery", "pickup"], "price": "$", "location": {"address1": "2700 W Pecan St", "address2": "Ste 600", "address3": "", "city": "Pflugerville", "zip_code": "78660", "country": "US", "state": "TX", "display_address": ["2700 W Pecan St", "Ste 600", "Pflugerville, TX 78660"]}, "phone": "+15122515999", "display_phone": "(512) 251-5999", "distance": 9614.498232752781}, {"id": "4ssxUxP_KQA5o-vuR6RWIg", "alias": "teapioca-lounge-austin-3", "name": "Teapioca Lounge", "image_url": "https://s3-media3.fl.yelpcdn.com/bphoto/hWTvFO3F3xtwdmBDQcFBnQ/o.jpg", "is_closed": false, "url": "https://www.yelp.com/biz/teapioca-lounge-austin-3?adjust_creative=SPQKlBixEX48Vo_BnitdQw&utm_campaign=yelp_api_v3&utm_medium=api_v3_business_search&utm_source=SPQKlBixEX48Vo_BnitdQw", "review_count": 555, "categories": [{"alias": "coffee", "title": "Coffee & Tea"}, {"alias": "bubbletea", "title": "Bubble Tea"}, {"alias": "juicebars", "title": "Juice Bars & Smoothies"}], "rating": 4.0, "coordinates": {"latitude": 30.41305, "longitude": -97.68784}, "transactions": ["delivery"], "price": "$", "location": {"address1": "1700 W Parmer Ln", "address2": "Ste 210", "address3": "", "city": "Austin", "zip_code": "78727", "country": "US", "state": "TX", "display_address": ["1700 W Parmer Ln", "Ste 210", "Austin, TX 78727"]}, "phone": "+15128337888", "display_phone": "(512) 833-7888", "distance": 8204.937929385123}, {"id": "F9uZiSgC5gkzsvmqlCya9Q", "alias": "p-f-changs-austin-11", "name": "P.F. Chang's", "image_url": "https://s3-media4.fl.yelpcdn.com/bphoto/W-x74b2-mNpzP6IIKzJpBQ/o.jpg", "is_closed": false, "url": "https://www.yelp.com/biz/p-f-changs-austin-11?adjust_creative=SPQKlBixEX48Vo_BnitdQw&utm_campaign=yelp_api_v3&utm_medium=api_v3_business_search&utm_source=SPQKlBixEX48Vo_BnitdQw", "review_count": 449, "categories": [{"alias": "chinese", "title": "Chinese"}, {"alias": "asianfusion", "title": "Asian Fusion"}], "rating": 3.0, "coordinates": {"latitude": 30.3955107, "longitude": -97.7503492}, "transactions": ["delivery", "pickup"], "price": "$$", "location": {"address1": "10114 Jollyville Rd", "address2": "", "address3": "", "city": "Austin", "zip_code": "78759", "country": "US", "state": "TX", "display_address": ["10114 Jollyville Rd", "Austin, TX 78759"]}, "phone": "+15122310208", "display_phone": "(512) 231-0208", "distance": 6766.697905799598}, {"id": "BYJ3MHDohyMzzoiHbImeSQ", "alias": "china-wall-restaurant-round-rock", "name": "China Wall Restaurant", "image_url": "https://s3-media3.fl.yelpcdn.com/bphoto/Zx6h9cWhGaH42PxdUjiWUQ/o.jpg", "is_closed": false, "url": "https://www.yelp.com/biz/china-wall-restaurant-round-rock?adjust_creative=SPQKlBixEX48Vo_BnitdQw&utm_campaign=yelp_api_v3&utm_medium=api_v3_business_search&utm_source=SPQKlBixEX48Vo_BnitdQw", "review_count": 168, "categories": [{"alias": "chinese", "title": "Chinese"}, {"alias": "vietnamese", "title": "Vietnamese"}, {"alias": "mongolian", "title": "Mongolian"}], "rating": 3.0, "coordinates": {"latitude": 30.48993, "longitude": -97.68033}, "transactions": ["delivery", "pickup"], "price": "$$", "location": {"address1": "2000 S IH-35", "address2": "Ste G4", "address3": "", "city": "Round Rock", "zip_code": "78681", "country": "US", "state": "TX", "display_address": ["2000 S IH-35", "Ste G4", "Round Rock, TX 78681"]}, "phone": "+15123101160", "display_phone": "(512) 310-1160", "distance": 8288.75848735182}, {"id": "x42O25dJ_v_S2mDMpuzz-w", "alias": "china-house-austin", "name": "China House", "image_url": "https://s3-media1.fl.yelpcdn.com/bphoto/6AjBcW3PXlEmA65Eeh8NaQ/o.jpg", "is_closed": false, "url": "https://www.yelp.com/biz/china-house-austin?adjust_creative=SPQKlBixEX48Vo_BnitdQw&utm_campaign=yelp_api_v3&utm_medium=api_v3_business_search&utm_source=SPQKlBixEX48Vo_BnitdQw", "review_count": 91, "categories": [{"alias": "chinese", "title": "Chinese"}], "rating": 2.5, "coordinates": {"latitude": 30.378612, "longitude": -97.724739}, "transactions": ["delivery", "pickup"], "price": "$", "location": {"address1": "9505 Burnet Rd", "address2": "Ste A", "address3": "", "city": "Austin", "zip_code": "78758", "country": "US", "state": "TX", "display_address": ["9505 Burnet Rd", "Ste A", "Austin, TX 78758"]}, "phone": "+15128340788", "display_phone": "(512) 834-0788", "distance": 9161.90660298044}, {"id": "vNIYhxwlftP3WNknqhQETg", "alias": "delaware-subs-austin-4", "name": "Delaware Subs", "image_url": "https://s3-media2.fl.yelpcdn.com/bphoto/dOaO_u7lc7elrEEUYkOd7A/o.jpg", "is_closed": false, "url": "https://www.yelp.com/biz/delaware-subs-austin-4?adjust_creative=SPQKlBixEX48Vo_BnitdQw&utm_campaign=yelp_api_v3&utm_medium=api_v3_business_search&utm_source=SPQKlBixEX48Vo_BnitdQw", "review_count": 127, "categories": [{"alias": "sandwiches", "title": "Sandwiches"}, {"alias": "cheesesteaks", "title": "Cheesesteaks"}, {"alias": "italian", "title": "Italian"}], "rating": 3.0, "coordinates": {"latitude": 30.3718292947061, "longitude": -97.7565019463901}, "transactions": ["delivery", "pickup"], "price": "$", "location": {"address1": "8105 Mesa Dr", "address2": "Ste C", "address3": "", "city": "Austin", "zip_code": "78759", "country": "US", "state": "TX", "display_address": ["8105 Mesa Dr", "Ste C", "Austin, TX 78759"]}, "phone": "+15123453816", "display_phone": "(512) 345-3816", "distance": 9366.68309256811}, {"id": "HECegm4QaFFnhS2GlZ8VtQ", "alias": "four-seasons-chinese-restaurant-austin", "name": "Four Seasons Chinese Restaurant", "image_url": "https://s3-media4.fl.yelpcdn.com/bphoto/gw2JnGtAiEcEL29Y2CRGmg/o.jpg", "is_closed": false, "url": "https://www.yelp.com/biz/four-seasons-chinese-restaurant-austin?adjust_creative=SPQKlBixEX48Vo_BnitdQw&utm_campaign=yelp_api_v3&utm_medium=api_v3_business_search&utm_source=SPQKlBixEX48Vo_BnitdQw", "review_count": 220, "categories": [{"alias": "chinese", "title": "Chinese"}], "rating": 3.5, "coordinates": {"latitude": 30.44624, "longitude": -97.68576}, "transactions": ["delivery", "pickup"], "price": "$", "location": {"address1": "14735 Bratton Ln", "address2": "Ste 225", "address3": "", "city": "Austin", "zip_code": "78728", "country": "US", "state": "TX", "display_address": ["14735 Bratton Ln", "Ste 225", "Austin, TX 78728"]}, "phone": "+15122510827", "display_phone": "(512) 251-0827", "distance": 6991.885597362903}, {"id": "mn1SFS4bVVFKsfEqGTcvOw", "alias": "fire-bowl-cafe-austin-2", "name": "Fire Bowl Cafe", "image_url": "https://s3-media2.fl.yelpcdn.com/bphoto/Zb2eECWqg6-RaVZzdNgJSw/o.jpg", "is_closed": false, "url": "https://www.yelp.com/biz/fire-bowl-cafe-austin-2?adjust_creative=SPQKlBixEX48Vo_BnitdQw&utm_campaign=yelp_api_v3&utm_medium=api_v3_business_search&utm_source=SPQKlBixEX48Vo_BnitdQw", "review_count": 282, "categories": [{"alias": "chinese", "title": "Chinese"}, {"alias": "asianfusion", "title": "Asian Fusion"}, {"alias": "thai", "title": "Thai"}], "rating": 3.5, "coordinates": {"latitude": 30.395275, "longitude": -97.749377}, "transactions": ["delivery", "pickup"], "price": "$", "location": {"address1": "9828 Great Hills Trl", "address2": "Ste 100", "address3": "", "city": "Austin", "zip_code": "78759", "country": "US", "state": "TX", "display_address": ["9828 Great Hills Trl", "Ste 100", "Austin, TX 78759"]}, "phone": "+15127958998", "display_phone": "(512) 795-8998", "distance": 6802.65702519025}, {"id": "LKoYVqQyWJbIaC2UkDMynw", "alias": "sichuan-garden-round-rock", "name": "Sichuan Garden", "image_url": "https://s3-media3.fl.yelpcdn.com/bphoto/7SKII8GpV_T90nHKgANp5A/o.jpg", "is_closed": false, "url": "https://www.yelp.com/biz/sichuan-garden-round-rock?adjust_creative=SPQKlBixEX48Vo_BnitdQw&utm_campaign=yelp_api_v3&utm_medium=api_v3_business_search&utm_source=SPQKlBixEX48Vo_BnitdQw", "review_count": 268, "categories": [{"alias": "szechuan", "title": "Szechuan"}, {"alias": "seafood", "title": "Seafood"}, {"alias": "noodles", "title": "Noodles"}], "rating": 3.5, "coordinates": {"latitude": 30.5084141256793, "longitude": -97.6877152919769}, "transactions": ["delivery"], "price": "$$", "location": {"address1": "110 I H 35 N", "address2": "Ste 240", "address3": "", "city": "Round Rock", "zip_code": "78681", "country": "US", "state": "TX", "display_address": ["110 I H 35 N", "Ste 240", "Round Rock, TX 78681"]}, "phone": "+15122556952", "display_phone": "(512) 255-6952", "distance": 8857.117002844374}, {"id": "jWz0NBCz5Ya2OSyeRNbI1w", "alias": "masala-wok-austin-2", "name": "Masala Wok", "image_url": "https://s3-media3.fl.yelpcdn.com/bphoto/eliiIUZJSirK6HRORC_GWg/o.jpg", "is_closed": false, "url": "https://www.yelp.com/biz/masala-wok-austin-2?adjust_creative=SPQKlBixEX48Vo_BnitdQw&utm_campaign=yelp_api_v3&utm_medium=api_v3_business_search&utm_source=SPQKlBixEX48Vo_BnitdQw", "review_count": 357, "categories": [{"alias": "indpak", "title": "Indian"}, {"alias": "asianfusion", "title": "Asian Fusion"}, {"alias": "chinese", "title": "Chinese"}], "rating": 3.5, "coordinates": {"latitude": 30.388905158257543, "longitude": -97.73280767575935}, "transactions": ["delivery", "pickup"], "price": "$$", "location": {"address1": "10515 N Mopac Expy", "address2": "Ste A-155", "address3": "", "city": "Austin", "zip_code": "78759", "country": "US", "state": "TX", "display_address": ["10515 N Mopac Expy", "Ste A-155", "Austin, TX 78759"]}, "phone": "+15122962977", "display_phone": "(512) 296-2977", "distance": 7830.367277471739}, {"id": "VJj_xjjWX_UHaFNL91_Duw", "alias": "masala-wok-austin", "name": "Masala Wok", "image_url": "https://s3-media2.fl.yelpcdn.com/bphoto/p21fkZtBUJbd7X69Oc7eNQ/o.jpg", "is_closed": false, "url": "https://www.yelp.com/biz/masala-wok-austin?adjust_creative=SPQKlBixEX48Vo_BnitdQw&utm_campaign=yelp_api_v3&utm_medium=api_v3_business_search&utm_source=SPQKlBixEX48Vo_BnitdQw", "review_count": 315, "categories": [{"alias": "indpak", "title": "Indian"}, {"alias": "asianfusion", "title": "Asian Fusion"}, {"alias": "chinese", "title": "Chinese"}], "rating": 3.5, "coordinates": {"latitude": 30.41804, "longitude": -97.67123}, "transactions": ["delivery", "pickup"], "price": "$", "location": {"address1": "1100 Center Ridge Dr", "address2": "Ste 300", "address3": "", "city": "Austin", "zip_code": "78753", "country": "US", "state": "TX", "display_address": ["1100 Center Ridge Dr", "Ste 300", "Austin, TX 78753"]}, "phone": "+15122519696", "display_phone": "(512) 251-9696", "distance": 9222.945104225031}, {"id": "hrDUqL02tA-6lnnopguEyg", "alias": "teapioca-lounge-austin-5", "name": "Teapioca Lounge", "image_url": "https://s3-media1.fl.yelpcdn.com/bphoto/0WkTInoJWD2h26c3MTz22Q/o.jpg", "is_closed": false, "url": "https://www.yelp.com/biz/teapioca-lounge-austin-5?adjust_creative=SPQKlBixEX48Vo_BnitdQw&utm_campaign=yelp_api_v3&utm_medium=api_v3_business_search&utm_source=SPQKlBixEX48Vo_BnitdQw", "review_count": 89, "categories": [{"alias": "coffee", "title": "Coffee & Tea"}, {"alias": "juicebars", "title": "Juice Bars & Smoothies"}, {"alias": "bubbletea", "title": "Bubble Tea"}], "rating": 3.5, "coordinates": {"latitude": 30.391071, "longitude": -97.7487887}, "transactions": ["delivery"], "price": "$", "location": {"address1": "10000 Research Blvd", "address2": "Ste 137", "address3": "", "city": "Austin", "zip_code": "78759", "country": "US", "state": "TX", "display_address": ["10000 Research Blvd", "Ste 137", "Austin, TX 78759"]}, "phone": "+15128383656", "display_phone": "(512) 838-3656", "distance": 7273.501896185259}, {"id": "mjZUbhYYlhoXGofnzXU1TQ", "alias": "subway-round-rock-16", "name": "Subway", "image_url": "https://s3-media2.fl.yelpcdn.com/bphoto/orcENmh8rG205d-8fX1C6w/o.jpg", "is_closed": false, "url": "https://www.yelp.com/biz/subway-round-rock-16?adjust_creative=SPQKlBixEX48Vo_BnitdQw&utm_campaign=yelp_api_v3&utm_medium=api_v3_business_search&utm_source=SPQKlBixEX48Vo_BnitdQw", "review_count": 22, "categories": [{"alias": "sandwiches", "title": "Sandwiches"}], "rating": 2.5, "coordinates": {"latitude": 30.482374260158903, "longitude": -97.67253357560804}, "transactions": ["delivery", "pickup"], "price": "$", "location": {"address1": "2601 S Ih 35", "address2": "Ste 200", "address3": null, "city": "Round Rock", "zip_code": "78664", "country": "US", "state": "TX", "display_address": ["2601 S Ih 35", "Ste 200", "Round Rock, TX 78664"]}, "phone": "+15123887827", "display_phone": "(512) 388-7827", "distance": 8902.592103734523}]